{"businesses": [{"id": "vqmSE-4AEUyCwLWUiKU-3A", "alias": "sin-city-burger-new-york", "name": "Sin City Burger", "image_url": "https://s3-media2.fl.yelpcdn.com/bphoto/qUNxfkPYdnuKZhKPHPq-0w/o.jpg", "is_closed": false, "url": "https://www.yelp.com/biz/sin-city-burger-new-york?adjust_creative=a13dN0CY8XDTpMhWiRdWkw&utm_campaign=yelp_api_v3&utm_medium=api_v3_business_search&utm_source=a13dN0CY8XDTpMhWiRdWkw", "review_count": 119, "categories": [{"alias": "burgers", "title": "Burgers"}], "rating": 4.5, "coordinates": {"latitude": 40.771226, "longitude": -73.955619}, "transactions": ["pickup", "delivery"], "price": "$$", "location": {"address1": "311 E 76th St", "address2": null, "address3": "", "city": "New York", "zip_code": "10021", "country": "US", "state": "NY", "display_address": ["311 E 76th St", "New York, NY 10021"]}, "phone": "+12123210744", "display_phone": "(212) 321-0744", "distance": 8017.2631475461185}, {"id": "dkAj-3gmkvdA4XkJmw6hCw", "alias": "juanchis-burger-brooklyn", "name": "Juanchi's Burger", "image_url": "https://s3-media1.fl.yelpcdn.com/bphoto/NgoWqltJe5g53PI-NI5aQg/o.jpg", "is_closed": false, "url": "https://www.yelp.com/biz/juanchis-burger-brooklyn?adjust_creative=a13dN0CY8XDTpMhWiRdWkw&utm_campaign=yelp_api_v3&utm_medium=api_v3_business_search&utm_source=a13dN0CY8XDTpMhWiRdWkw", "review_count": 503, "categories": [{"alias": "gastropubs", "title": "Gastropubs"}, {"alias": "burgers", "title": "Burgers"}], "rating": 4.5, "coordinates": {"latitude": 40.713003, "longitude": -73.958863}, "transactions": ["delivery", "pickup", "restaurant_reservation"], "price": "$$", "location": {"address1": "225 S 1st St", "address2": null, "address3": "", "city": "Brooklyn", "zip_code": "11211", "country": "US", "state": "NY", "display_address": ["225 S 1st St", "Brooklyn, NY 11211"]}, "phone": "+19292950147", "display_phone": "(929) 295-0147", "distance": 3096.413027396761}, {"id": "RWWlZxOYALuHmBXHc2M0-w", "alias": "smashed-new-york", "name": "SMASHED", "image_url": "https://s3-media1.fl.yelpcdn.com/bphoto/bBRwILwBo8qIblfYESw6Mg/o.jpg", "is_closed": false, "url": "https://www.yelp.com/biz/smashed-new-york?adjust_creative=a13dN0CY8XDTpMhWiRdWkw&utm_campaign=yelp_api_v3&utm_medium=api_v3_business_search&utm_source=a13dN0CY8XDTpMhWiRdWkw", "review_count": 52, "categories": [{"alias": "burgers", "title": "Burgers"}], "rating": 4.5, "coordinates": {"latitude": 40.721819, "longitude": -73.988605}, "transactions": ["pickup", "delivery"], "location": {"address1": "177 Orchard St", "address2": null, "address3": "", "city": "New York", "zip_code": "10002", "country": "US", "state": "NY", "display_address": ["177 Orchard St", "New York, NY 10002"]}, "phone": "+12129458008", "display_phone": "(212) 945-8008", "distance": 1883.4512564178272}, {"id": "8xpGj_YkI2X6QxqXUJPw7g", "alias": "7th-street-burger-new-york", "name": "7th Street Burger", "image_url": "https://s3-media1.fl.yelpcdn.com/bphoto/18NmMYyCg_hOP6Eiy-ZhYQ/o.jpg", "is_closed": false, "url": "https://www.yelp.com/biz/7th-street-burger-new-york?adjust_creative=a13dN0CY8XDTpMhWiRdWkw&utm_campaign=yelp_api_v3&utm_medium=api_v3_business_search&utm_source=a13dN0CY8XDTpMhWiRdWkw", "review_count": 47, "categories": [{"alias": "burgers", "title": "Burgers"}], "rating": 4.5, "coordinates": {"latitude": 40.72697, "longitude": -73.98546}, "transactions": ["pickup", "delivery"], "price": "$$", "location": {"address1": "91 E 7th St", "address2": null, "address3": "", "city": "New York", "zip_code": "10009", "country": "US", "state": "NY", "display_address": ["91 E 7th St", "New York, NY 10009"]}, "phone": "+16464906797", "display_phone": "(646) 490-6797", "distance": 2506.6923025239694}, {"id": "MfbVI5reXLIIs8Cc2HwgQw", "alias": "breakroom-new-york", "name": "Breakroom", "image_url": "https://s3-media3.fl.yelpcdn.com/bphoto/6vv_E_iEX19gRg8M-zXFXw/o.jpg", "is_closed": false, "url": "https://www.yelp.com/biz/breakroom-new-york?adjust_creative=a13dN0CY8XDTpMhWiRdWkw&utm_campaign=yelp_api_v3&utm_medium=api_v3_business_search&utm_source=a13dN0CY8XDTpMhWiRdWkw", "review_count": 1612, "categories": [{"alias": "burgers", "title": "Burgers"}, {"alias": "tacos", "title": "Tacos"}], "rating": 4.5, "coordinates": {"latitude": 40.7166907225542, "longitude": -73.9999440120647}, "transactions": ["pickup", "delivery"], "price": "$$", "location": {"address1": "83 Baxter St", "address2": "", "address3": "", "city": "New York", "zip_code": "10013", "country": "US", "state": "NY", "display_address": ["83 Baxter St", "New York, NY 10013"]}, "phone": "+12122272802", "display_phone": "(212) 227-2802", "distance": 1338.114942586202}, {"id": "6qcydPo5eTSB4XHyyZDvkA", "alias": "bareburger-hells-kitchen-new-york", "name": "Bareburger - Hell's Kitchen", "image_url": "https://s3-media4.fl.yelpcdn.com/bphoto/sJMDnf-BTlBsIno-DaGMBg/o.jpg", "is_closed": false, "url": "https://www.yelp.com/biz/bareburger-hells-kitchen-new-york?adjust_creative=a13dN0CY8XDTpMhWiRdWkw&utm_campaign=yelp_api_v3&utm_medium=api_v3_business_search&utm_source=a13dN0CY8XDTpMhWiRdWkw", "review_count": 942, "categories": [{"alias": "burgers", "title": "Burgers"}, {"alias": "newamerican", "title": "American (New)"}, {"alias": "cocktailbars", "title": "Cocktail Bars"}], "rating": 4.0, "coordinates": {"latitude": 40.760558, "longitude": -73.990357}, "transactions": ["pickup", "delivery"], "price": "$$", "location": {"address1": "366 W 46th St", "address2": "", "address3": "", "city": "New York", "zip_code": "10036", "country": "US", "state": "NY", "display_address": ["366 W 46th St", "New York, NY 10036"]}, "phone": "+12126732273", "display_phone": "(212) 673-2273", "distance": 6137.262370023822}, {"id": "yZs_A8r0qDz7Z5bR0C-aiQ", "alias": "black-tap-midtown-new-york-3", "name": "Black Tap - Midtown", "image_url": "https://s3-media3.fl.yelpcdn.com/bphoto/5H74j5vO3EKgHTBUqne3cQ/o.jpg", "is_closed": false, "url": "https://www.yelp.com/biz/black-tap-midtown-new-york-3?adjust_creative=a13dN0CY8XDTpMhWiRdWkw&utm_campaign=yelp_api_v3&utm_medium=api_v3_business_search&utm_source=a13dN0CY8XDTpMhWiRdWkw", "review_count": 1213, "categories": [{"alias": "burgers", "title": "Burgers"}, {"alias": "bars", "title": "Bars"}], "rating": 4.0, "coordinates": {"latitude": 40.76347, "longitude": -73.97978}, "transactions": ["pickup", "delivery"], "price": "$$", "location": {"address1": "136 W 55th St", "address2": "", "address3": null, "city": "New York", "zip_code": "10019", "country": "US", "state": "NY", "display_address": ["136 W 55th St", "New York, NY 10019"]}, "phone": "+12123154356", "display_phone": "(212) 315-4356", "distance": 6569.3786878551955}, {"id": "m86CNmYThtzzWB3nPnrhbg", "alias": "emily-west-village-new-york", "name": "Emily - West Village", "image_url": "https://s3-media2.fl.yelpcdn.com/bphoto/6zPD8MFRcJLJiJoo-vXD9w/o.jpg", "is_closed": false, "url": "https://www.yelp.com/biz/emily-west-village-new-york?adjust_creative=a13dN0CY8XDTpMhWiRdWkw&utm_campaign=yelp_api_v3&utm_medium=api_v3_business_search&utm_source=a13dN0CY8XDTpMhWiRdWkw", "review_count": 777, "categories": [{"alias": "pizza", "title": "Pizza"}, {"alias": "burgers", "title": "Burgers"}], "rating": 4.0, "coordinates": {"latitude": 40.729330068469, "longitude": -74.0038400073579}, "transactions": ["pickup", "delivery"], "price": "$$", "location": {"address1": "35 Downing St", "address2": "", "address3": null, "city": "New York", "zip_code": "10014", "country": "US", "state": "NY", "display_address": ["35 Downing St", "New York, NY 10014"]}, "phone": "+19179356434", "display_phone": "(917) 935-6434", "distance": 2779.5434255898854}, {"id": "uYLIo8FCr9Ug5SFORDdsPA", "alias": "the-burgary-new-york", "name": "The Burgary", "image_url": "https://s3-media4.fl.yelpcdn.com/bphoto/X9GgkFxST1EcV4Te5-4btw/o.jpg", "is_closed": false, "url": "https://www.yelp.com/biz/the-burgary-new-york?adjust_creative=a13dN0CY8XDTpMhWiRdWkw&utm_campaign=yelp_api_v3&utm_medium=api_v3_business_search&utm_source=a13dN0CY8XDTpMhWiRdWkw", "review_count": 272, "categories": [{"alias": "burgers", "title": "Burgers"}], "rating": 4.0, "coordinates": {"latitude": 40.71944096840517, "longitude": -73.9850998321304}, "transactions": ["pickup", "delivery"], "price": "$$", "location": {"address1": "67 Clinton St", "address2": "", "address3": "", "city": "New York", "zip_code": "10002", "country": "US", "state": "NY", "display_address": ["67 Clinton St", "New York, NY 10002"]}, "phone": "+12125296900", "display_phone": "(212) 529-6900", "distance": 1738.5233137487294}, {"id": "-KKgqE2g4c1cH4YmmDR9CQ", "alias": "bernies-brooklyn", "name": "Bernie's", "image_url": "https://s3-media3.fl.yelpcdn.com/bphoto/OYHVZaujbLZwqrDethR-BQ/o.jpg", "is_closed": false, "url": "https://www.yelp.com/biz/bernies-brooklyn?adjust_creative=a13dN0CY8XDTpMhWiRdWkw&utm_campaign=yelp_api_v3&utm_medium=api_v3_business_search&utm_source=a13dN0CY8XDTpMhWiRdWkw", "review_count": 67, "categories": [{"alias": "newamerican", "title": "American (New)"}, {"alias": "beerbar", "title": "Beer Bar"}, {"alias": "wine_bars", "title": "Wine Bars"}], "rating": 4.5, "coordinates": {"latitude": 40.721936, "longitude": -73.950597}, "transactions": [], "price": "$$", "location": {"address1": "332 Driggs Ave", "address2": "", "address3": null, "city": "Brooklyn", "zip_code": "11222", "country": "US", "state": "NY", "display_address": ["332 Driggs Ave", "Brooklyn, NY 11222"]}, "phone": "+13475296400", "display_phone": "(347) 529-6400", "distance": 4113.871097595258}, {"id": "H26qMBb0OFNn2xmSTM1Phw", "alias": "kings-of-kobe-new-york-3", "name": "Kings of Kobe", "image_url": "https://s3-media1.fl.yelpcdn.com/bphoto/E09YECuHcoVEE1AKdJbtZg/o.jpg", "is_closed": false, "url": "https://www.yelp.com/biz/kings-of-kobe-new-york-3?adjust_creative=a13dN0CY8XDTpMhWiRdWkw&utm_campaign=yelp_api_v3&utm_medium=api_v3_business_search&utm_source=a13dN0CY8XDTpMhWiRdWkw", "review_count": 314, "categories": [{"alias": "hotdog", "title": "Hot Dogs"}, {"alias": "burgers", "title": "Burgers"}, {"alias": "bars", "title": "Bars"}], "rating": 4.5, "coordinates": {"latitude": 40.761172, "longitude": -74.000307}, "transactions": ["pickup", "delivery"], "price": "$$", "location": {"address1": "650 W 42nd St", "address2": null, "address3": "", "city": "New York", "zip_code": "10036", "country": "US", "state": "NY", "display_address": ["650 W 42nd St", "New York, NY 10036"]}, "phone": "+16463705121", "display_phone": "(646) 370-5121", "distance": 6217.25105775152}, {"id": "yk8j4W34Cy4K6uy9Btkf9Q", "alias": "pauls-da-burger-joint-new-york-2", "name": "Paul's Da Burger Joint", "image_url": "https://s3-media1.fl.yelpcdn.com/bphoto/pSgAB0gGrVVQXWpGYAly0g/o.jpg", "is_closed": false, "url": "https://www.yelp.com/biz/pauls-da-burger-joint-new-york-2?adjust_creative=a13dN0CY8XDTpMhWiRdWkw&utm_campaign=yelp_api_v3&utm_medium=api_v3_business_search&utm_source=a13dN0CY8XDTpMhWiRdWkw", "review_count": 1009, "categories": [{"alias": "burgers", "title": "Burgers"}], "rating": 4.0, "coordinates": {"latitude": 40.728539, "longitude": -73.988017}, "transactions": ["pickup", "delivery"], "price": "$$", "location": {"address1": "131 2nd Ave", "address2": "", "address3": "", "city": "New York", "zip_code": "10003", "country": "US", "state": "NY", "display_address": ["131 2nd Ave", "New York, NY 10003"]}, "phone": "+12125293033", "display_phone": "(212) 529-3033", "distance": 2621.859650134083}, {"id": "UA2M9QFZghe-9th2KwLoWQ", "alias": "burger-and-lobster-flatiron-nyc-new-york", "name": "Burger & Lobster - Flatiron NYC", "image_url": "https://s3-media2.fl.yelpcdn.com/bphoto/y1NYFEnpLG2KuyYDg8IcSg/o.jpg", "is_closed": false, "url": "https://www.yelp.com/biz/burger-and-lobster-flatiron-nyc-new-york?adjust_creative=a13dN0CY8XDTpMhWiRdWkw&utm_campaign=yelp_api_v3&utm_medium=api_v3_business_search&utm_source=a13dN0CY8XDTpMhWiRdWkw", "review_count": 5520, "categories": [{"alias": "seafood", "title": "Seafood"}, {"alias": "burgers", "title": "Burgers"}, {"alias": "newamerican", "title": "American (New)"}], "rating": 4.0, "coordinates": {"latitude": 40.74007, "longitude": -73.99344}, "transactions": ["pickup", "delivery"], "price": "$$", "location": {"address1": "39 W 19th St", "address2": "", "address3": "", "city": "New York", "zip_code": "10011", "country": "US", "state": "NY", "display_address": ["39 W 19th St", "New York, NY 10011"]}, "phone": "+16468337532", "display_phone": "(646) 833-7532", "distance": 3849.54386751767}, {"id": "fgtw4swOHXEFwZpBCG05rQ", "alias": "black-iron-burger-new-york-8", "name": "Black Iron Burger", "image_url": "https://s3-media2.fl.yelpcdn.com/bphoto/lOVzRs47bCw30agNhLmKOQ/o.jpg", "is_closed": false, "url": "https://www.yelp.com/biz/black-iron-burger-new-york-8?adjust_creative=a13dN0CY8XDTpMhWiRdWkw&utm_campaign=yelp_api_v3&utm_medium=api_v3_business_search&utm_source=a13dN0CY8XDTpMhWiRdWkw", "review_count": 1003, "categories": [{"alias": "burgers", "title": "Burgers"}, {"alias": "newamerican", "title": "American (New)"}, {"alias": "beerbar", "title": "Beer Bar"}], "rating": 4.0, "coordinates": {"latitude": 40.75427, "longitude": -73.99031}, "transactions": ["pickup", "delivery"], "price": "$$", "location": {"address1": "245 W 38th St", "address2": null, "address3": "", "city": "New York", "zip_code": "10018", "country": "US", "state": "NY", "display_address": ["245 W 38th St", "New York, NY 10018"]}, "phone": "+16464763116", "display_phone": "(646) 476-3116", "distance": 5438.621366312229}, {"id": "qOp4T7UxfL6MgO41dN3Qlg", "alias": "whitmans-new-york", "name": "Whitmans", "image_url": "https://s3-media2.fl.yelpcdn.com/bphoto/INCrXM_h7FV_wl9ewG0qAA/o.jpg", "is_closed": false, "url": "https://www.yelp.com/biz/whitmans-new-york?adjust_creative=a13dN0CY8XDTpMhWiRdWkw&utm_campaign=yelp_api_v3&utm_medium=api_v3_business_search&utm_source=a13dN0CY8XDTpMhWiRdWkw", "review_count": 653, "categories": [{"alias": "burgers", "title": "Burgers"}, {"alias": "tradamerican", "title": "American (Traditional)"}], "rating": 4.0, "coordinates": {"latitude": 40.727942, "longitude": -73.984469}, "transactions": ["pickup", "delivery"], "price": "$$", "location": {"address1": "406 E 9th St", "address2": "", "address3": "", "city": "New York", "zip_code": "10009", "country": "US", "state": "NY", "display_address": ["406 E 9th St", "New York, NY 10009"]}, "phone": "+19172612858", "display_phone": "(917) 261-2858", "distance": 2635.0284991867343}, {"id": "HYoPErHY9ZvtfXXCDmDOhw", "alias": "brooklyn-beef-n-cheese-new-york", "name": "Brooklyn Beef N\u2019 Cheese", "image_url": "https://s3-media4.fl.yelpcdn.com/bphoto/kPLpohArQhwF5Svxk-MlSg/o.jpg", "is_closed": false, "url": "https://www.yelp.com/biz/brooklyn-beef-n-cheese-new-york?adjust_creative=a13dN0CY8XDTpMhWiRdWkw&utm_campaign=yelp_api_v3&utm_medium=api_v3_business_search&utm_source=a13dN0CY8XDTpMhWiRdWkw", "review_count": 46, "categories": [{"alias": "newamerican", "title": "American (New)"}, {"alias": "burgers", "title": "Burgers"}, {"alias": "sandwiches", "title": "Sandwiches"}], "rating": 5.0, "coordinates": {"latitude": 40.706506, "longitude": -74.007752}, "transactions": ["pickup", "delivery"], "location": {"address1": "70 Pine St", "address2": "", "address3": "", "city": "New York", "zip_code": "10005", "country": "US", "state": "NY", "display_address": ["70 Pine St", "New York, NY 10005"]}, "phone": "+19172612389", "display_phone": "(917) 261-2389", "distance": 1142.221482327151}, {"id": "JrNXp1M7RKzw_2bG9i0RZw", "alias": "daisies-burgers-new-york", "name": "Daisies Burgers", "image_url": "https://s3-media1.fl.yelpcdn.com/bphoto/aXUKH5d8wRx8A7HpHsFR3A/o.jpg", "is_closed": false, "url": "https://www.yelp.com/biz/daisies-burgers-new-york?adjust_creative=a13dN0CY8XDTpMhWiRdWkw&utm_campaign=yelp_api_v3&utm_medium=api_v3_business_search&utm_source=a13dN0CY8XDTpMhWiRdWkw", "review_count": 2, "categories": [{"alias": "burgers", "title": "Burgers"}], "rating": 5.0, "coordinates": {"latitude": 40.7336244, "longitude": -74.00613750978151}, "transactions": [], "location": {"address1": "516 Hudson St", "address2": null, "address3": "", "city": "New York", "zip_code": "10014", "country": "US", "state": "NY", "display_address": ["516 Hudson St", "New York, NY 10014"]}, "phone": "+16464906907", "display_phone": "(646) 490-6907", "distance": 3288.569282587739}, {"id": "S-orV8mh7O8POI3EZzndKw", "alias": "burger-im-brooklyn", "name": "Burger IM", "image_url": "https://s3-media3.fl.yelpcdn.com/bphoto/Z4Dg_NqP4-_puZ8kBsrGzA/o.jpg", "is_closed": false, "url": "https://www.yelp.com/biz/burger-im-brooklyn?adjust_creative=a13dN0CY8XDTpMhWiRdWkw&utm_campaign=yelp_api_v3&utm_medium=api_v3_business_search&utm_source=a13dN0CY8XDTpMhWiRdWkw", "review_count": 3, "categories": [{"alias": "burgers", "title": "Burgers"}], "rating": 4.5, "coordinates": {"latitude": 40.69395918630356, "longitude": -73.96346563822044}, "transactions": ["pickup", "delivery"], "location": {"address1": "531 Myrtle Ave", "address2": "", "address3": null, "city": "Brooklyn", "zip_code": "11205", "country": "US", "state": "NY", "display_address": ["531 Myrtle Ave", "Brooklyn, NY 11205"]}, "phone": "", "display_phone": "", "distance": 2895.658754587339}, {"id": "__EvomQ2tE1NtkWn32WEXg", "alias": "au-cheval-new-york-7", "name": "Au Cheval", "image_url": "https://s3-media2.fl.yelpcdn.com/bphoto/W9-b1nIonfipgSeqZxXkaQ/o.jpg", "is_closed": false, "url": "https://www.yelp.com/biz/au-cheval-new-york-7?adjust_creative=a13dN0CY8XDTpMhWiRdWkw&utm_campaign=yelp_api_v3&utm_medium=api_v3_business_search&utm_source=a13dN0CY8XDTpMhWiRdWkw", "review_count": 512, "categories": [{"alias": "burgers", "title": "Burgers"}, {"alias": "newamerican", "title": "American (New)"}, {"alias": "cocktailbars", "title": "Cocktail Bars"}], "rating": 4.5, "coordinates": {"latitude": 40.7183878, "longitude": -74.0015522}, "transactions": [], "location": {"address1": "33 Cortlandt Alley", "address2": "", "address3": null, "city": "New York", "zip_code": "10013", "country": "US", "state": "NY", "display_address": ["33 Cortlandt Alley", "New York, NY 10013"]}, "phone": "+16463502429", "display_phone": "(646) 350-2429", "distance": 1551.476759847152}, {"id": "xiEBdZ8z5KY21Vw2pY2fJQ", "alias": "two-8-two-bar-and-burger-brooklyn", "name": "Two 8 Two Bar & Burger", "image_url": "https://s3-media1.fl.yelpcdn.com/bphoto/Bk_qD2OE7vVfDvsN4jZExQ/o.jpg", "is_closed": false, "url": "https://www.yelp.com/biz/two-8-two-bar-and-burger-brooklyn?adjust_creative=a13dN0CY8XDTpMhWiRdWkw&utm_campaign=yelp_api_v3&utm_medium=api_v3_business_search&utm_source=a13dN0CY8XDTpMhWiRdWkw", "review_count": 678, "categories": [{"alias": "burgers", "title": "Burgers"}, {"alias": "bars", "title": "Bars"}], "rating": 4.0, "coordinates": {"latitude": 40.688536, "longitude": -73.989728}, "transactions": ["pickup", "delivery"], "price": "$$", "location": {"address1": "282 Atlantic Ave", "address2": "", "address3": "", "city": "Brooklyn", "zip_code": "11201", "country": "US", "state": "NY", "display_address": ["282 Atlantic Ave", "Brooklyn, NY 11201"]}, "phone": "+17185962282", "display_phone": "(718) 596-2282", "distance": 1915.6748264608461}, {"id": "D2qV8sDdHEFlHbVz7VSHRQ", "alias": "black-tap-soho-new-york-3", "name": "Black Tap - Soho", "image_url": "https://s3-media2.fl.yelpcdn.com/bphoto/CNTqbEKz1aBB9tzQ1hJwSQ/o.jpg", "is_closed": false, "url": "https://www.yelp.com/biz/black-tap-soho-new-york-3?adjust_creative=a13dN0CY8XDTpMhWiRdWkw&utm_campaign=yelp_api_v3&utm_medium=api_v3_business_search&utm_source=a13dN0CY8XDTpMhWiRdWkw", "review_count": 1252, "categories": [{"alias": "tradamerican", "title": "American (Traditional)"}, {"alias": "burgers", "title": "Burgers"}, {"alias": "beerbar", "title": "Beer Bar"}], "rating": 3.5, "coordinates": {"latitude": 40.723794, "longitude": -74.004193}, "transactions": ["pickup", "delivery"], "price": "$$", "location": {"address1": "529 Broome St", "address2": "", "address3": "", "city": "New York", "zip_code": "10013", "country": "US", "state": "NY", "display_address": ["529 Broome St", "New York, NY 10013"]}, "phone": "+19176393089", "display_phone": "(917) 639-3089", "distance": 2204.3415650587467}, {"id": "Aaq-nph44s6nLmHzRyOoOA", "alias": "mister-dips-new-york", "name": "Mister Dips", "image_url": "https://s3-media2.fl.yelpcdn.com/bphoto/LcbA7kgy3aa9U0zZNT4sUg/o.jpg", "is_closed": false, "url": "https://www.yelp.com/biz/mister-dips-new-york?adjust_creative=a13dN0CY8XDTpMhWiRdWkw&utm_campaign=yelp_api_v3&utm_medium=api_v3_business_search&utm_source=a13dN0CY8XDTpMhWiRdWkw", "review_count": 28, "categories": [{"alias": "wine_bars", "title": "Wine Bars"}, {"alias": "burgers", "title": "Burgers"}, {"alias": "beerbar", "title": "Beer Bar"}], "rating": 4.0, "coordinates": {"latitude": 40.70565640210654, "longitude": -74.00203339101144}, "transactions": ["pickup", "delivery"], "price": "$", "location": {"address1": "89 South St", "address2": null, "address3": null, "city": "New York", "zip_code": "10038", "country": "US", "state": "NY", "display_address": ["89 South St", "New York, NY 10038"]}, "phone": "", "display_phone": "", "distance": 652.8711382515121}, {"id": "FCqKzOUM6DAxjU_xkXdhzg", "alias": "royale-new-york", "name": "Royale", "image_url": "https://s3-media4.fl.yelpcdn.com/bphoto/oBoaAsc3n9FqtR6E9Cgdow/o.jpg", "is_closed": false, "url": "https://www.yelp.com/biz/royale-new-york?adjust_creative=a13dN0CY8XDTpMhWiRdWkw&utm_campaign=yelp_api_v3&utm_medium=api_v3_business_search&utm_source=a13dN0CY8XDTpMhWiRdWkw", "review_count": 501, "categories": [{"alias": "burgers", "title": "Burgers"}, {"alias": "bars", "title": "Bars"}], "rating": 4.0, "coordinates": {"latitude": 40.7258174842573, "longitude": -73.9778455564146}, "transactions": ["pickup", "delivery"], "price": "$$", "location": {"address1": "157 Ave C", "address2": null, "address3": "", "city": "New York", "zip_code": "10009", "country": "US", "state": "NY", "display_address": ["157 Ave C", "New York, NY 10009"]}, "phone": "+12122546600", "display_phone": "(212) 254-6600", "distance": 2655.810332776548}, {"id": "NDntYYgQlNSMZcminW03rg", "alias": "burger-village-brooklyn-8", "name": "Burger Village - Livingston St", "image_url": "https://s3-media4.fl.yelpcdn.com/bphoto/e2B_2vaMqgQ87UG9PaWIZA/o.jpg", "is_closed": false, "url": "https://www.yelp.com/biz/burger-village-brooklyn-8?adjust_creative=a13dN0CY8XDTpMhWiRdWkw&utm_campaign=yelp_api_v3&utm_medium=api_v3_business_search&utm_source=a13dN0CY8XDTpMhWiRdWkw", "review_count": 35, "categories": [{"alias": "burgers", "title": "Burgers"}, {"alias": "gluten_free", "title": "Gluten-Free"}, {"alias": "vegan", "title": "Vegan"}], "rating": 4.0, "coordinates": {"latitude": 40.6885381261769, "longitude": -73.9831304054385}, "transactions": ["pickup", "delivery"], "location": {"address1": "286 Livingston St", "address2": "", "address3": null, "city": "Brooklyn", "zip_code": "11217", "country": "US", "state": "NY", "display_address": ["286 Livingston St", "Brooklyn, NY 11217"]}, "phone": "+19179090594", "display_phone": "(917) 909-0594", "distance": 2102.3319838029947}, {"id": "CDywb3LHVYZlQL2-woTiJA", "alias": "hole-in-the-wall-flatiron-new-york", "name": "Hole in The Wall - Flatiron", "image_url": "https://s3-media4.fl.yelpcdn.com/bphoto/xDNCW42oaCrVXqkTeMgEEg/o.jpg", "is_closed": false, "url": "https://www.yelp.com/biz/hole-in-the-wall-flatiron-new-york?adjust_creative=a13dN0CY8XDTpMhWiRdWkw&utm_campaign=yelp_api_v3&utm_medium=api_v3_business_search&utm_source=a13dN0CY8XDTpMhWiRdWkw", "review_count": 152, "categories": [{"alias": "australian", "title": "Australian"}, {"alias": "breakfast_brunch", "title": "Breakfast & Brunch"}, {"alias": "burgers", "title": "Burgers"}], "rating": 4.5, "coordinates": {"latitude": 40.743292, "longitude": -73.991097}, "transactions": [], "price": "$$", "location": {"address1": "37 W 24th St", "address2": "", "address3": null, "city": "New York", "zip_code": "10010", "country": "US", "state": "NY", "display_address": ["37 W 24th St", "New York, NY 10010"]}, "phone": "", "display_phone": "", "distance": 4216.209020757736}, {"id": "RemvTpxalDjSew5HwmNzUQ", "alias": "the-dead-rabbit-new-york", "name": "The Dead Rabbit", "image_url": "https://s3-media2.fl.yelpcdn.com/bphoto/_4T5R0HHhASROheby-TXDA/o.jpg", "is_closed": false, "url": "https://www.yelp.com/biz/the-dead-rabbit-new-york?adjust_creative=a13dN0CY8XDTpMhWiRdWkw&utm_campaign=yelp_api_v3&utm_medium=api_v3_business_search&utm_source=a13dN0CY8XDTpMhWiRdWkw", "review_count": 1619, "categories": [{"alias": "cocktailbars", "title": "Cocktail Bars"}], "rating": 4.0, "coordinates": {"latitude": 40.70329, "longitude": -74.01102}, "transactions": ["pickup", "delivery"], "price": "$$", "location": {"address1": "30 Water St", "address2": "", "address3": "", "city": "New York", "zip_code": "10004", "country": "US", "state": "NY", "display_address": ["30 Water St", "New York, NY 10004"]}, "phone": "+16464227906", "display_phone": "(646) 422-7906", "distance": 1431.0399855447463}, {"id": "KdQ8DYVwpghvc0ytNpqOyA", "alias": "77-burger-new-york", "name": "77 Burger", "image_url": "https://s3-media2.fl.yelpcdn.com/bphoto/XkJ3TGeaTD-P0l_27HlLnA/o.jpg", "is_closed": false, "url": "https://www.yelp.com/biz/77-burger-new-york?adjust_creative=a13dN0CY8XDTpMhWiRdWkw&utm_campaign=yelp_api_v3&utm_medium=api_v3_business_search&utm_source=a13dN0CY8XDTpMhWiRdWkw", "review_count": 12, "categories": [{"alias": "burgers", "title": "Burgers"}, {"alias": "juicebars", "title": "Juice Bars & Smoothies"}, {"alias": "hotdog", "title": "Hot Dogs"}], "rating": 5.0, "coordinates": {"latitude": 40.7039601005882, "longitude": -74.0104199945927}, "transactions": ["pickup", "delivery"], "location": {"address1": "77 Pearl St", "address2": "", "address3": null, "city": "New York", "zip_code": "10004", "country": "US", "state": "NY", "display_address": ["77 Pearl St", "New York, NY 10004"]}, "phone": "+12128250354", "display_phone": "(212) 825-0354", "distance": 1369.390169828009}, {"id": "Q39xJvqJaM1xgDka8bQ80w", "alias": "black-iron-burger-brooklyn", "name": "Black Iron Burger", "image_url": "https://s3-media2.fl.yelpcdn.com/bphoto/CP5dThMQXcEmVx1TCjQasQ/o.jpg", "is_closed": false, "url": "https://www.yelp.com/biz/black-iron-burger-brooklyn?adjust_creative=a13dN0CY8XDTpMhWiRdWkw&utm_campaign=yelp_api_v3&utm_medium=api_v3_business_search&utm_source=a13dN0CY8XDTpMhWiRdWkw", "review_count": 96, "categories": [{"alias": "burgers", "title": "Burgers"}, {"alias": "newamerican", "title": "American (New)"}, {"alias": "beerbar", "title": "Beer Bar"}], "rating": 4.0, "coordinates": {"latitude": 40.680368, "longitude": -73.975156}, "transactions": ["pickup", "delivery"], "price": "$$", "location": {"address1": "234 Flatbush Ave", "address2": "", "address3": null, "city": "Brooklyn", "zip_code": "11217", "country": "US", "state": "NY", "display_address": ["234 Flatbush Ave", "Brooklyn, NY 11217"]}, "phone": "+19294196888", "display_phone": "(929) 419-6888", "distance": 3221.8405164356195}, {"id": "QyB52nUrwJRY0ipuwcfR_A", "alias": "the-hihi-room-new-york", "name": "The HiHi Room", "image_url": "https://s3-media2.fl.yelpcdn.com/bphoto/5Lt738FShS8qstjPCcEZHw/o.jpg", "is_closed": false, "url": "https://www.yelp.com/biz/the-hihi-room-new-york?adjust_creative=a13dN0CY8XDTpMhWiRdWkw&utm_campaign=yelp_api_v3&utm_medium=api_v3_business_search&utm_source=a13dN0CY8XDTpMhWiRdWkw", "review_count": 48, "categories": [{"alias": "sandwiches", "title": "Sandwiches"}, {"alias": "burgers", "title": "Burgers"}, {"alias": "newamerican", "title": "American (New)"}], "rating": 4.5, "coordinates": {"latitude": 40.6871, "longitude": -73.99036}, "transactions": ["pickup", "delivery"], "location": {"address1": "138 Smith St", "address2": "", "address3": null, "city": "New York", "zip_code": "11201", "country": "US", "state": "NY", "display_address": ["138 Smith St", "New York, NY 11201"]}, "phone": "+17185763352", "display_phone": "(718) 576-3352", "distance": 2062.450275620811}, {"id": "W_DXM1ZCcM9NTFOR_Jow7w", "alias": "sixth-ward-brooklyn-2", "name": "Sixth Ward", "image_url": "https://s3-media2.fl.yelpcdn.com/bphoto/rlC6e9qoywmQjntQ9iWUuA/o.jpg", "is_closed": false, "url": "https://www.yelp.com/biz/sixth-ward-brooklyn-2?adjust_creative=a13dN0CY8XDTpMhWiRdWkw&utm_campaign=yelp_api_v3&utm_medium=api_v3_business_search&utm_source=a13dN0CY8XDTpMhWiRdWkw", "review_count": 40, "categories": [{"alias": "tradamerican", "title": "American (Traditional)"}, {"alias": "bbq", "title": "Barbeque"}, {"alias": "breakfast_brunch", "title": "Breakfast & Brunch"}], "rating": 4.5, "coordinates": {"latitude": 40.68599, "longitude": -73.9911}, "transactions": ["delivery", "pickup", "restaurant_reservation"], "location": {"address1": "166 Smith St", "address2": null, "address3": "", "city": "Brooklyn", "zip_code": "11201", "country": "US", "state": "NY", "display_address": ["166 Smith St", "Brooklyn, NY 11201"]}, "phone": "+17184513825", "display_phone": "(718) 451-3825", "distance": 2175.2044122200696}, {"id": "UbOYpFK9lzJh4c6SyUELjQ", "alias": "crave-burger-cafe-jersey-city-3", "name": "Crave Burger Cafe", "image_url": "https://s3-media4.fl.yelpcdn.com/bphoto/6cSG7v89hULEeYO6tr2JVA/o.jpg", "is_closed": false, "url": "https://www.yelp.com/biz/crave-burger-cafe-jersey-city-3?adjust_creative=a13dN0CY8XDTpMhWiRdWkw&utm_campaign=yelp_api_v3&utm_medium=api_v3_business_search&utm_source=a13dN0CY8XDTpMhWiRdWkw", "review_count": 11, "categories": [{"alias": "cafes", "title": "Cafes"}, {"alias": "coffee", "title": "Coffee & Tea"}, {"alias": "burgers", "title": "Burgers"}], "rating": 5.0, "coordinates": {"latitude": 40.7241619287648, "longitude": -74.0639340103768}, "transactions": ["pickup", "delivery"], "location": {"address1": "61 Baldwin Ave", "address2": null, "address3": "", "city": "Jersey City", "zip_code": "07306", "country": "US", "state": "NJ", "display_address": ["61 Baldwin Ave", "Jersey City, NJ 07306"]}, "phone": "+12012043180", "display_phone": "(201) 204-3180", "distance": 6235.568137865787}, {"id": "77EedCTJY1biWIYSzAulCQ", "alias": "j-g-melon-new-york-4", "name": "J.G. Melon", "image_url": "https://s3-media2.fl.yelpcdn.com/bphoto/TXfqMXlF2VfghYzVvO2Lxg/o.jpg", "is_closed": false, "url": "https://www.yelp.com/biz/j-g-melon-new-york-4?adjust_creative=a13dN0CY8XDTpMhWiRdWkw&utm_campaign=yelp_api_v3&utm_medium=api_v3_business_search&utm_source=a13dN0CY8XDTpMhWiRdWkw", "review_count": 1353, "categories": [{"alias": "tradamerican", "title": "American (Traditional)"}, {"alias": "bars", "title": "Bars"}, {"alias": "salad", "title": "Salad"}], "rating": 3.5, "coordinates": {"latitude": 40.77105, "longitude": -73.95931}, "transactions": ["delivery"], "price": "$$", "location": {"address1": "1291 3rd Ave", "address2": "", "address3": "", "city": "New York", "zip_code": "10021", "country": "US", "state": "NY", "display_address": ["1291 3rd Ave", "New York, NY 10021"]}, "phone": "+12127440585", "display_phone": "(212) 744-0585", "distance": 7866.869294997786}, {"id": "TDyu1-6XF7r1jc13j7nDNA", "alias": "t\u00f8rst-brooklyn", "name": "T\u00d8RST", "image_url": "https://s3-media2.fl.yelpcdn.com/bphoto/f0oWXjJQj6XifVzRUQ_Lcg/o.jpg", "is_closed": false, "url": "https://www.yelp.com/biz/t%C3%B8rst-brooklyn?adjust_creative=a13dN0CY8XDTpMhWiRdWkw&utm_campaign=yelp_api_v3&utm_medium=api_v3_business_search&utm_source=a13dN0CY8XDTpMhWiRdWkw", "review_count": 409, "categories": [{"alias": "beerbar", "title": "Beer Bar"}, {"alias": "gastropubs", "title": "Gastropubs"}, {"alias": "wine_bars", "title": "Wine Bars"}], "rating": 4.5, "coordinates": {"latitude": 40.7233949, "longitude": -73.950856}, "transactions": ["pickup", "delivery"], "price": "$$", "location": {"address1": "615 Manhattan Ave", "address2": "", "address3": "", "city": "Brooklyn", "zip_code": "11222", "country": "US", "state": "NY", "display_address": ["615 Manhattan Ave", "Brooklyn, NY 11222"]}, "phone": "+17183896034", "display_phone": "(718) 389-6034", "distance": 4169.732367493427}, {"id": "AqplnJoY5I68hqHx1_gR_A", "alias": "o-learys-publik-house-jersey-city", "name": "O'Leary's Publik House", "image_url": "https://s3-media3.fl.yelpcdn.com/bphoto/m-pQDq9IC9f1prtfD2LCuQ/o.jpg", "is_closed": false, "url": "https://www.yelp.com/biz/o-learys-publik-house-jersey-city?adjust_creative=a13dN0CY8XDTpMhWiRdWkw&utm_campaign=yelp_api_v3&utm_medium=api_v3_business_search&utm_source=a13dN0CY8XDTpMhWiRdWkw", "review_count": 76, "categories": [{"alias": "pubs", "title": "Pubs"}, {"alias": "cocktailbars", "title": "Cocktail Bars"}], "rating": 4.5, "coordinates": {"latitude": 40.7063526, "longitude": -74.0732076}, "transactions": ["pickup", "delivery"], "price": "$", "location": {"address1": "788 Garfield Ave", "address2": "", "address3": "", "city": "Jersey City", "zip_code": "07305", "country": "US", "state": "NJ", "display_address": ["788 Garfield Ave", "Jersey City, NJ 07305"]}, "phone": "+12014357269", "display_phone": "(201) 435-7269", "distance": 6648.5077567765165}, {"id": "QzweHZrBpVaYgrlcVdaXkw", "alias": "best-burger-new-york-3", "name": "Best Burger", "image_url": "https://s3-media1.fl.yelpcdn.com/bphoto/esPi47LCqoj3pHKw4uNPBw/o.jpg", "is_closed": false, "url": "https://www.yelp.com/biz/best-burger-new-york-3?adjust_creative=a13dN0CY8XDTpMhWiRdWkw&utm_campaign=yelp_api_v3&utm_medium=api_v3_business_search&utm_source=a13dN0CY8XDTpMhWiRdWkw", "review_count": 22, "categories": [{"alias": "burgers", "title": "Burgers"}, {"alias": "beerbar", "title": "Beer Bar"}, {"alias": "cocktailbars", "title": "Cocktail Bars"}], "rating": 5.0, "coordinates": {"latitude": 40.74062, "longitude": -74.00845}, "transactions": [], "location": {"address1": "53 Little W 12th St", "address2": "", "address3": null, "city": "New York", "zip_code": "10014", "country": "US", "state": "NY", "display_address": ["53 Little W 12th St", "New York, NY 10014"]}, "phone": "", "display_phone": "", "distance": 4101.996154967332}, {"id": "8mmM20X369_Do04kW7-TTA", "alias": "holy-cow-new-york-4", "name": "Holy Cow", "image_url": "https://s3-media2.fl.yelpcdn.com/bphoto/TQkUZ--P1E928h5B-e1Bvw/o.jpg", "is_closed": false, "url": "https://www.yelp.com/biz/holy-cow-new-york-4?adjust_creative=a13dN0CY8XDTpMhWiRdWkw&utm_campaign=yelp_api_v3&utm_medium=api_v3_business_search&utm_source=a13dN0CY8XDTpMhWiRdWkw", "review_count": 290, "categories": [{"alias": "burgers", "title": "Burgers"}, {"alias": "hotdog", "title": "Hot Dogs"}, {"alias": "hotdogs", "title": "Fast Food"}], "rating": 4.0, "coordinates": {"latitude": 40.7143638, "longitude": -73.9906935}, "transactions": ["pickup", "delivery"], "price": "$", "location": {"address1": "34 Canal St", "address2": "", "address3": null, "city": "New York", "zip_code": "10002", "country": "US", "state": "NY", "display_address": ["34 Canal St", "New York, NY 10002"]}, "phone": "+12127749446", "display_phone": "(212) 774-9446", "distance": 1037.114338644949}, {"id": "bpjDo7svAFD10eszaOPQHw", "alias": "clinton-hall-new-york-13", "name": "Clinton Hall", "image_url": "https://s3-media2.fl.yelpcdn.com/bphoto/0lX58zsHKhM7R9Ey9DAGdw/o.jpg", "is_closed": false, "url": "https://www.yelp.com/biz/clinton-hall-new-york-13?adjust_creative=a13dN0CY8XDTpMhWiRdWkw&utm_campaign=yelp_api_v3&utm_medium=api_v3_business_search&utm_source=a13dN0CY8XDTpMhWiRdWkw", "review_count": 218, "categories": [{"alias": "beergardens", "title": "Beer Gardens"}, {"alias": "newamerican", "title": "American (New)"}, {"alias": "bars", "title": "Bars"}], "rating": 4.0, "coordinates": {"latitude": 40.75009, "longitude": -73.98471}, "transactions": ["pickup", "delivery"], "price": "$$", "location": {"address1": "16 W 36th St", "address2": null, "address3": "", "city": "New York", "zip_code": "10018", "country": "US", "state": "NY", "display_address": ["16 W 36th St", "New York, NY 10018"]}, "phone": "+12126950036", "display_phone": "(212) 695-0036", "distance": 5021.331080017711}, {"id": "hGo9KArKThuOKxNbwmNpoA", "alias": "rubys-cafe-new-york-4", "name": "Ruby's Cafe", "image_url": "https://s3-media3.fl.yelpcdn.com/bphoto/IFhAGIH9Rr1lWuUzx9zWtg/o.jpg", "is_closed": false, "url": "https://www.yelp.com/biz/rubys-cafe-new-york-4?adjust_creative=a13dN0CY8XDTpMhWiRdWkw&utm_campaign=yelp_api_v3&utm_medium=api_v3_business_search&utm_source=a13dN0CY8XDTpMhWiRdWkw", "review_count": 1367, "categories": [{"alias": "burgers", "title": "Burgers"}, {"alias": "coffee", "title": "Coffee & Tea"}, {"alias": "breakfast_brunch", "title": "Breakfast & Brunch"}], "rating": 4.0, "coordinates": {"latitude": 40.7223288, "longitude": -73.996326}, "transactions": ["pickup", "delivery"], "price": "$$", "location": {"address1": "219 Mulberry St", "address2": null, "address3": "", "city": "New York", "zip_code": "10012", "country": "US", "state": "NY", "display_address": ["219 Mulberry St", "New York, NY 10012"]}, "phone": "+12129255755", "display_phone": "(212) 925-5755", "distance": 1885.2073265064769}, {"id": "fHHpSKT9u7PQBYaMW5cEkA", "alias": "trad-room-brooklyn-2", "name": "Trad Room", "image_url": "https://s3-media3.fl.yelpcdn.com/bphoto/G601cUICmfD0XI3vjyE4yg/o.jpg", "is_closed": false, "url": "https://www.yelp.com/biz/trad-room-brooklyn-2?adjust_creative=a13dN0CY8XDTpMhWiRdWkw&utm_campaign=yelp_api_v3&utm_medium=api_v3_business_search&utm_source=a13dN0CY8XDTpMhWiRdWkw", "review_count": 67, "categories": [{"alias": "japanese", "title": "Japanese"}, {"alias": "burgers", "title": "Burgers"}, {"alias": "sushi", "title": "Sushi Bars"}], "rating": 4.5, "coordinates": {"latitude": 40.68391, "longitude": -73.929419}, "transactions": ["pickup", "delivery"], "price": "$$", "location": {"address1": "266 Malcolm X Blvd", "address2": null, "address3": "", "city": "Brooklyn", "zip_code": "11233", "country": "US", "state": "NY", "display_address": ["266 Malcolm X Blvd", "Brooklyn, NY 11233"]}, "phone": "+13472405760", "display_phone": "(347) 240-5760", "distance": 5970.591967566962}, {"id": "BCwSqk9WY5woPkWEkvWkMg", "alias": "bronsons-burgers-new-york", "name": "Bronson's Burgers", "image_url": "https://s3-media1.fl.yelpcdn.com/bphoto/ukIdYPMs7EwARh0GuOS6yw/o.jpg", "is_closed": false, "url": "https://www.yelp.com/biz/bronsons-burgers-new-york?adjust_creative=a13dN0CY8XDTpMhWiRdWkw&utm_campaign=yelp_api_v3&utm_medium=api_v3_business_search&utm_source=a13dN0CY8XDTpMhWiRdWkw", "review_count": 10, "categories": [{"alias": "burgers", "title": "Burgers"}], "rating": 4.0, "coordinates": {"latitude": 40.72317, "longitude": -73.99568}, "transactions": [], "location": {"address1": "250 Mulberry St", "address2": "", "address3": null, "city": "New York", "zip_code": "10012", "country": "US", "state": "NY", "display_address": ["250 Mulberry St", "New York, NY 10012"]}, "phone": "+12128886280", "display_phone": "(212) 888-6280", "distance": 1977.6216178801326}, {"id": "R1C1TAIbC4cs_A58pppAww", "alias": "mighties-new-york-2", "name": "Mighties", "image_url": "https://s3-media1.fl.yelpcdn.com/bphoto/Gi4AFQuhWE1iQ-xLsfJKNg/o.jpg", "is_closed": false, "url": "https://www.yelp.com/biz/mighties-new-york-2?adjust_creative=a13dN0CY8XDTpMhWiRdWkw&utm_campaign=yelp_api_v3&utm_medium=api_v3_business_search&utm_source=a13dN0CY8XDTpMhWiRdWkw", "review_count": 7, "categories": [{"alias": "burgers", "title": "Burgers"}], "rating": 4.0, "coordinates": {"latitude": 40.71827, "longitude": -73.98806}, "transactions": ["pickup", "delivery"], "location": {"address1": "115 Delancey St", "address2": null, "address3": "", "city": "New York", "zip_code": "10002", "country": "US", "state": "NY", "display_address": ["115 Delancey St", "New York, NY 10002"]}, "phone": "", "display_phone": "", "distance": 1517.0627728269587}, {"id": "036OHcA8Au0yTOrrcj5SEQ", "alias": "someday-bar-brooklyn", "name": "Someday Bar", "image_url": "https://s3-media3.fl.yelpcdn.com/bphoto/s-OCLXP-WzE_xmwEMH84_A/o.jpg", "is_closed": false, "url": "https://www.yelp.com/biz/someday-bar-brooklyn?adjust_creative=a13dN0CY8XDTpMhWiRdWkw&utm_campaign=yelp_api_v3&utm_medium=api_v3_business_search&utm_source=a13dN0CY8XDTpMhWiRdWkw", "review_count": 45, "categories": [{"alias": "bars", "title": "Bars"}, {"alias": "newamerican", "title": "American (New)"}], "rating": 4.5, "coordinates": {"latitude": 40.68736, "longitude": -73.98633}, "transactions": ["pickup", "delivery"], "price": "$$", "location": {"address1": "364 Atlantic Ave", "address2": null, "address3": "", "city": "Brooklyn", "zip_code": "11217", "country": "US", "state": "NY", "display_address": ["364 Atlantic Ave", "Brooklyn, NY 11217"]}, "phone": "+19294808454", "display_phone": "(929) 480-8454", "distance": 2120.044511746092}, {"id": "gHdejB1Mx2P5UjAgZ6BT2w", "alias": "cheeky-sandwiches-new-york", "name": "Cheeky Sandwiches", "image_url": "https://s3-media2.fl.yelpcdn.com/bphoto/eHIqgp6XIZh8k4ydTnKA6Q/o.jpg", "is_closed": false, "url": "https://www.yelp.com/biz/cheeky-sandwiches-new-york?adjust_creative=a13dN0CY8XDTpMhWiRdWkw&utm_campaign=yelp_api_v3&utm_medium=api_v3_business_search&utm_source=a13dN0CY8XDTpMhWiRdWkw", "review_count": 1265, "categories": [{"alias": "sandwiches", "title": "Sandwiches"}, {"alias": "desserts", "title": "Desserts"}], "rating": 4.5, "coordinates": {"latitude": 40.7158, "longitude": -73.99169}, "transactions": ["pickup", "delivery"], "price": "$", "location": {"address1": "35 Orchard St", "address2": "", "address3": "", "city": "New York", "zip_code": "10002", "country": "US", "state": "NY", "display_address": ["35 Orchard St", "New York, NY 10002"]}, "phone": "+16465048132", "display_phone": "(646) 504-8132", "distance": 1165.1002553885921}, {"id": "9phYK1esfjNkdd5UPIt9_w", "alias": "fulton-burger-brooklyn", "name": "Fulton Burger", "image_url": "https://s3-media1.fl.yelpcdn.com/bphoto/bU3oI4ioxiQZkL7WZLDfMw/o.jpg", "is_closed": false, "url": "https://www.yelp.com/biz/fulton-burger-brooklyn?adjust_creative=a13dN0CY8XDTpMhWiRdWkw&utm_campaign=yelp_api_v3&utm_medium=api_v3_business_search&utm_source=a13dN0CY8XDTpMhWiRdWkw", "review_count": 15, "categories": [{"alias": "burgers", "title": "Burgers"}, {"alias": "desserts", "title": "Desserts"}, {"alias": "sandwiches", "title": "Sandwiches"}], "rating": 3.5, "coordinates": {"latitude": 40.702801, "longitude": -73.993492}, "transactions": ["pickup", "delivery"], "location": {"address1": "17 Old Fulton St", "address2": "", "address3": null, "city": "Brooklyn", "zip_code": "10038", "country": "US", "state": "NY", "display_address": ["17 Old Fulton St", "Brooklyn, NY 10038"]}, "phone": "+13477992217", "display_phone": "(347) 799-2217", "distance": 297.0095111497472}, {"id": "NgPXeIWQicIXxjxSlGXvjA", "alias": "black-burger-new-york", "name": "Black Burger", "image_url": "https://s3-media2.fl.yelpcdn.com/bphoto/gewGO3vWfG5nwTjYUVzfGg/o.jpg", "is_closed": false, "url": "https://www.yelp.com/biz/black-burger-new-york?adjust_creative=a13dN0CY8XDTpMhWiRdWkw&utm_campaign=yelp_api_v3&utm_medium=api_v3_business_search&utm_source=a13dN0CY8XDTpMhWiRdWkw", "review_count": 342, "categories": [{"alias": "burgers", "title": "Burgers"}], "rating": 4.0, "coordinates": {"latitude": 40.72138, "longitude": -74.00497}, "transactions": ["pickup", "delivery"], "price": "$$", "location": {"address1": "386 Canal St", "address2": "", "address3": "", "city": "New York", "zip_code": "10013", "country": "US", "state": "NY", "display_address": ["386 Canal St", "New York, NY 10013"]}, "phone": "+12124317651", "display_phone": "(212) 431-7651", "distance": 1978.8074340579058}, {"id": "nD7Hcq5aaCASbWzc0-Sg3A", "alias": "bobwhite-counter-new-york-7", "name": "Bobwhite Counter", "image_url": "https://s3-media4.fl.yelpcdn.com/bphoto/uuvduV0sJlbm42r81_geLA/o.jpg", "is_closed": false, "url": "https://www.yelp.com/biz/bobwhite-counter-new-york-7?adjust_creative=a13dN0CY8XDTpMhWiRdWkw&utm_campaign=yelp_api_v3&utm_medium=api_v3_business_search&utm_source=a13dN0CY8XDTpMhWiRdWkw", "review_count": 830, "categories": [{"alias": "southern", "title": "Southern"}, {"alias": "comfortfood", "title": "Comfort Food"}], "rating": 4.5, "coordinates": {"latitude": 40.72365, "longitude": -73.97899}, "transactions": ["pickup", "delivery"], "price": "$", "location": {"address1": "94 Ave C", "address2": "", "address3": "", "city": "New York", "zip_code": "10009", "country": "US", "state": "NY", "display_address": ["94 Ave C", "New York, NY 10009"]}, "phone": "+12122282972", "display_phone": "(212) 228-2972", "distance": 2400.440701516285}, {"id": "6rgmK1O2nN5MviWrPQ3h9Q", "alias": "mrbeast-burger-long-island-city-2", "name": "MrBeast Burger", "image_url": "https://s3-media2.fl.yelpcdn.com/bphoto/nG1XzVNxJMqcX_F7WBBnDA/o.jpg", "is_closed": false, "url": "https://www.yelp.com/biz/mrbeast-burger-long-island-city-2?adjust_creative=a13dN0CY8XDTpMhWiRdWkw&utm_campaign=yelp_api_v3&utm_medium=api_v3_business_search&utm_source=a13dN0CY8XDTpMhWiRdWkw", "review_count": 1, "categories": [{"alias": "fooddeliveryservices", "title": "Food Delivery Services"}, {"alias": "burgers", "title": "Burgers"}], "rating": 5.0, "coordinates": {"latitude": 40.740221, "longitude": -73.952686}, "transactions": ["pickup", "delivery"], "location": {"address1": "53-02 11th St", "address2": null, "address3": null, "city": "Long Island City", "zip_code": "11101", "country": "US", "state": "NY", "display_address": ["53-02 11th St", "Long Island City, NY 11101"]}, "phone": "", "display_phone": "", "distance": 5225.751846540594}, {"id": "Oq1mej1BYfjcdPKkM_5o8g", "alias": "high-street-on-hudson-new-york", "name": "High Street On Hudson", "image_url": "https://s3-media4.fl.yelpcdn.com/bphoto/FvKsbK7g79UVFYyyzqNeYQ/o.jpg", "is_closed": false, "url": "https://www.yelp.com/biz/high-street-on-hudson-new-york?adjust_creative=a13dN0CY8XDTpMhWiRdWkw&utm_campaign=yelp_api_v3&utm_medium=api_v3_business_search&utm_source=a13dN0CY8XDTpMhWiRdWkw", "review_count": 428, "categories": [{"alias": "newamerican", "title": "American (New)"}, {"alias": "wine_bars", "title": "Wine Bars"}, {"alias": "seafood", "title": "Seafood"}], "rating": 4.0, "coordinates": {"latitude": 40.73888, "longitude": -74.00574}, "transactions": ["pickup", "delivery"], "price": "$$", "location": {"address1": "637 Hudson St", "address2": null, "address3": "", "city": "New York", "zip_code": "10014", "country": "US", "state": "NY", "display_address": ["637 Hudson St", "New York, NY 10014"]}, "phone": "+19173883944", "display_phone": "(917) 388-3944", "distance": 3843.1955727088894}, {"id": "NDIrifAl6K-RrnZ2D3ZGbw", "alias": "emily-brooklyn-2", "name": "Emily", "image_url": "https://s3-media2.fl.yelpcdn.com/bphoto/mhCmk6CLlIrv6kRI12LU7Q/o.jpg", "is_closed": false, "url": "https://www.yelp.com/biz/emily-brooklyn-2?adjust_creative=a13dN0CY8XDTpMhWiRdWkw&utm_campaign=yelp_api_v3&utm_medium=api_v3_business_search&utm_source=a13dN0CY8XDTpMhWiRdWkw", "review_count": 837, "categories": [{"alias": "tradamerican", "title": "American (Traditional)"}], "rating": 4.0, "coordinates": {"latitude": 40.68351, "longitude": -73.96643}, "transactions": ["pickup", "delivery"], "price": "$$$", "location": {"address1": "919 Fulton St", "address2": "", "address3": null, "city": "Brooklyn", "zip_code": "11238", "country": "US", "state": "NY", "display_address": ["919 Fulton St", "Brooklyn, NY 11238"]}, "phone": "+13478449588", "display_phone": "(347) 844-9588", "distance": 3386.31188613219}, {"id": "3aMjf-zblMsOYnzXV5D70A", "alias": "moo-burger-brooklyn", "name": "Moo Burger", "image_url": "https://s3-media2.fl.yelpcdn.com/bphoto/KNGxa0KKo3UGhDRO7EJEUg/o.jpg", "is_closed": false, "url": "https://www.yelp.com/biz/moo-burger-brooklyn?adjust_creative=a13dN0CY8XDTpMhWiRdWkw&utm_campaign=yelp_api_v3&utm_medium=api_v3_business_search&utm_source=a13dN0CY8XDTpMhWiRdWkw", "review_count": 461, "categories": [{"alias": "burgers", "title": "Burgers"}, {"alias": "hotdog", "title": "Hot Dogs"}, {"alias": "salad", "title": "Salad"}], "rating": 4.0, "coordinates": {"latitude": 40.685823, "longitude": -73.994528}, "transactions": ["pickup", "delivery"], "price": "$$", "location": {"address1": "240 Court St", "address2": "", "address3": "", "city": "Brooklyn", "zip_code": "11201", "country": "US", "state": "NY", "display_address": ["240 Court St", "Brooklyn, NY 11201"]}, "phone": "+17182468259", "display_phone": "(718) 246-8259", "distance": 2180.0950456746477}], "total": 240, "region": {"center": {"longitude": -73.99429321289062, "latitude": 40.70544486444615}}}