{"businesses": [{"id": "0CjK3esfpFcxIopebzjFxA", "alias": "joes-shanghai-new-york-2", "name": "Joe's Shanghai", "image_url": "https://s3-media4.fl.yelpcdn.com/bphoto/KRvabBPGaQikcpSD6vO2bg/o.jpg", "is_closed": false, "url": "https://www.yelp.com/biz/joes-shanghai-new-york-2?adjust_creative=a13dN0CY8XDTpMhWiRdWkw&utm_campaign=yelp_api_v3&utm_medium=api_v3_business_search&utm_source=a13dN0CY8XDTpMhWiRdWkw", "review_count": 6447, "categories": [{"alias": "shanghainese", "title": "Shanghainese"}, {"alias": "seafood", "title": "Seafood"}, {"alias": "noodles", "title": "Noodles"}], "rating": 4.0, "coordinates": {"latitude": 40.7156608, "longitude": -73.9967012}, "transactions": ["pickup", "delivery"], "price": "$$", "location": {"address1": "46 Bowery St", "address2": "", "address3": "", "city": "New York", "zip_code": "10013", "country": "US", "state": "NY", "display_address": ["46 Bowery St", "New York, NY 10013"]}, "phone": "+12122338888", "display_phone": "(212) 233-8888", "distance": 1153.9482385806896}, {"id": "lynQoI3w_pzYfHGeuUU-Qg", "alias": "shu-jiao-fu-zhou-cuisine-restaurant-new-york", "name": "Shu Jiao Fu Zhou Cuisine Restaurant", "image_url": "https://s3-media2.fl.yelpcdn.com/bphoto/EV10p_mweh7C1qjrLUJePw/o.jpg", "is_closed": false, "url": "https://www.yelp.com/biz/shu-jiao-fu-zhou-cuisine-restaurant-new-york?adjust_creative=a13dN0CY8XDTpMhWiRdWkw&utm_campaign=yelp_api_v3&utm_medium=api_v3_business_search&utm_source=a13dN0CY8XDTpMhWiRdWkw", "review_count": 913, "categories": [{"alias": "chinese", "title": "Chinese"}], "rating": 4.5, "coordinates": {"latitude": 40.7174109, "longitude": -73.9920876}, "transactions": ["pickup", "delivery"], "price": "$", "location": {"address1": "295 Grand St", "address2": null, "address3": null, "city": "New York", "zip_code": "10002", "country": "US", "state": "NY", "display_address": ["295 Grand St", "New York, NY 10002"]}, "phone": "+12126252532", "display_phone": "(212) 625-2532", "distance": 1343.4851190479994}, {"id": "xq0cX_DgxiJMXwhmEl9kUA", "alias": "caf\u00e9-china-new-york-2", "name": "Caf\u00e9 China", "image_url": "https://s3-media1.fl.yelpcdn.com/bphoto/UhHqxEX2epOvrBFI2pgRzg/o.jpg", "is_closed": false, "url": "https://www.yelp.com/biz/caf%C3%A9-china-new-york-2?adjust_creative=a13dN0CY8XDTpMhWiRdWkw&utm_campaign=yelp_api_v3&utm_medium=api_v3_business_search&utm_source=a13dN0CY8XDTpMhWiRdWkw", "review_count": 1693, "categories": [{"alias": "szechuan", "title": "Szechuan"}], "rating": 4.0, "coordinates": {"latitude": 40.75157, "longitude": -73.98584}, "transactions": ["pickup", "delivery"], "price": "$$", "location": {"address1": "59 West 37th St", "address2": null, "address3": "", "city": "New York", "zip_code": "10018", "country": "US", "state": "NY", "display_address": ["59 West 37th St", "New York, NY 10018"]}, "phone": "+12122132810", "display_phone": "(212) 213-2810", "distance": 5186.281753515895}, {"id": "0dDCDQz7DrKkSvu9h2hcQw", "alias": "chow-house-new-york", "name": "Chow House", "image_url": "https://s3-media3.fl.yelpcdn.com/bphoto/kzeClsI9_2tkHqKScotx1Q/o.jpg", "is_closed": false, "url": "https://www.yelp.com/biz/chow-house-new-york?adjust_creative=a13dN0CY8XDTpMhWiRdWkw&utm_campaign=yelp_api_v3&utm_medium=api_v3_business_search&utm_source=a13dN0CY8XDTpMhWiRdWkw", "review_count": 458, "categories": [{"alias": "szechuan", "title": "Szechuan"}, {"alias": "noodles", "title": "Noodles"}, {"alias": "soup", "title": "Soup"}], "rating": 4.5, "coordinates": {"latitude": 40.72915, "longitude": -74.00072}, "transactions": ["restaurant_reservation", "delivery", "pickup"], "price": "$$", "location": {"address1": "181 Bleecker St", "address2": null, "address3": "", "city": "New York", "zip_code": "10012", "country": "US", "state": "NY", "display_address": ["181 Bleecker St", "New York, NY 10012"]}, "phone": "+12128371021", "display_phone": "(212) 837-1021", "distance": 2692.4401801037266}, {"id": "XsXLVWr1UZWVhKThNvNiaA", "alias": "blue-willow-\u591c\u6765\u6e58-new-york-2", "name": "Blue Willow \u591c\u6765\u6e58", "image_url": "https://s3-media2.fl.yelpcdn.com/bphoto/1E59vOqmXZHBlJe0lLBHtA/o.jpg", "is_closed": false, "url": "https://www.yelp.com/biz/blue-willow-%E5%A4%9C%E6%9D%A5%E6%B9%98-new-york-2?adjust_creative=a13dN0CY8XDTpMhWiRdWkw&utm_campaign=yelp_api_v3&utm_medium=api_v3_business_search&utm_source=a13dN0CY8XDTpMhWiRdWkw", "review_count": 288, "categories": [{"alias": "szechuan", "title": "Szechuan"}], "rating": 4.5, "coordinates": {"latitude": 40.76292, "longitude": -73.976546}, "transactions": ["pickup", "delivery"], "location": {"address1": "40 W 56th St", "address2": null, "address3": "", "city": "New York", "zip_code": "10019", "country": "US", "state": "NY", "display_address": ["40 W 56th St", "New York, NY 10019"]}, "phone": "+12122132299", "display_phone": "(212) 213-2299", "distance": 6563.688733717886}, {"id": "X8ZS-dgiMIJvhwf9SaDnjw", "alias": "wah-fung-no-1-new-york-2", "name": "Wah Fung No 1", "image_url": "https://s3-media3.fl.yelpcdn.com/bphoto/oMriteKj4yYHMmb8myOgJA/o.jpg", "is_closed": false, "url": "https://www.yelp.com/biz/wah-fung-no-1-new-york-2?adjust_creative=a13dN0CY8XDTpMhWiRdWkw&utm_campaign=yelp_api_v3&utm_medium=api_v3_business_search&utm_source=a13dN0CY8XDTpMhWiRdWkw", "review_count": 1634, "categories": [{"alias": "hotdogs", "title": "Fast Food"}, {"alias": "cantonese", "title": "Cantonese"}], "rating": 4.5, "coordinates": {"latitude": 40.71735, "longitude": -73.99457}, "transactions": ["delivery"], "price": "$", "location": {"address1": "79 Chrystie St", "address2": "", "address3": "", "city": "New York", "zip_code": "10002", "country": "US", "state": "NY", "display_address": ["79 Chrystie St", "New York, NY 10002"]}, "phone": "+12129255175", "display_phone": "(212) 925-5175", "distance": 1323.2851807067286}, {"id": "wfhMIiMh2A2psCGONOVSlg", "alias": "han-dynasty-new-york", "name": "Han Dynasty", "image_url": "https://s3-media3.fl.yelpcdn.com/bphoto/G5jm9G3m_tquqwDm_qHoVQ/o.jpg", "is_closed": false, "url": "https://www.yelp.com/biz/han-dynasty-new-york?adjust_creative=a13dN0CY8XDTpMhWiRdWkw&utm_campaign=yelp_api_v3&utm_medium=api_v3_business_search&utm_source=a13dN0CY8XDTpMhWiRdWkw", "review_count": 1275, "categories": [{"alias": "szechuan", "title": "Szechuan"}, {"alias": "noodles", "title": "Noodles"}, {"alias": "beerbar", "title": "Beer Bar"}], "rating": 4.0, "coordinates": {"latitude": 40.732072, "longitude": -73.988074}, "transactions": ["pickup", "delivery"], "price": "$$", "location": {"address1": "90 3rd Ave", "address2": "", "address3": "", "city": "New York", "zip_code": "10003", "country": "US", "state": "NY", "display_address": ["90 3rd Ave", "New York, NY 10003"]}, "phone": "+12123908685", "display_phone": "(212) 390-8685", "distance": 3006.833804957513}, {"id": "BNaveJmi-OUGKG9sRfrIhA", "alias": "mr-sun-new-york", "name": "Mr. Sun", "image_url": "https://s3-media2.fl.yelpcdn.com/bphoto/dv2__yunhW9ahqK9BexKRQ/o.jpg", "is_closed": false, "url": "https://www.yelp.com/biz/mr-sun-new-york?adjust_creative=a13dN0CY8XDTpMhWiRdWkw&utm_campaign=yelp_api_v3&utm_medium=api_v3_business_search&utm_source=a13dN0CY8XDTpMhWiRdWkw", "review_count": 39, "categories": [{"alias": "dimsum", "title": "Dim Sum"}], "rating": 4.5, "coordinates": {"latitude": 40.75809, "longitude": -73.98026}, "transactions": ["restaurant_reservation", "delivery", "pickup"], "price": "$$", "location": {"address1": "48 W 48th St", "address2": "", "address3": null, "city": "New York", "zip_code": "10036", "country": "US", "state": "NY", "display_address": ["48 W 48th St", "New York, NY 10036"]}, "phone": "+17183169811", "display_phone": "(718) 316-9811", "distance": 5959.214395061453}, {"id": "4FD0TAxe70nb3ngk3sXF9Q", "alias": "uluh-new-york", "name": "Uluh", "image_url": "https://s3-media3.fl.yelpcdn.com/bphoto/ZPv7XlXR5ZnD3S_AAV3jXg/o.jpg", "is_closed": false, "url": "https://www.yelp.com/biz/uluh-new-york?adjust_creative=a13dN0CY8XDTpMhWiRdWkw&utm_campaign=yelp_api_v3&utm_medium=api_v3_business_search&utm_source=a13dN0CY8XDTpMhWiRdWkw", "review_count": 524, "categories": [{"alias": "tea", "title": "Tea Rooms"}, {"alias": "asianfusion", "title": "Asian Fusion"}, {"alias": "szechuan", "title": "Szechuan"}], "rating": 4.5, "coordinates": {"latitude": 40.7293403, "longitude": -73.9866071}, "transactions": ["restaurant_reservation", "delivery", "pickup"], "price": "$$$", "location": {"address1": "152 2nd Ave", "address2": "Ste A", "address3": "", "city": "New York", "zip_code": "10003", "country": "US", "state": "NY", "display_address": ["152 2nd Ave", "Ste A", "New York, NY 10003"]}, "phone": "+19172615963", "display_phone": "(917) 261-5963", "distance": 2734.8706531999514}, {"id": "Q1TpfbuPwKPFrNFyu-u2_g", "alias": "han-dynasty-brooklyn-2", "name": "Han Dynasty", "image_url": "https://s3-media3.fl.yelpcdn.com/bphoto/vxbMumdu8Q1e3iCxJ2qZfQ/o.jpg", "is_closed": false, "url": "https://www.yelp.com/biz/han-dynasty-brooklyn-2?adjust_creative=a13dN0CY8XDTpMhWiRdWkw&utm_campaign=yelp_api_v3&utm_medium=api_v3_business_search&utm_source=a13dN0CY8XDTpMhWiRdWkw", "review_count": 325, "categories": [{"alias": "chinese", "title": "Chinese"}], "rating": 4.0, "coordinates": {"latitude": 40.6911319610036, "longitude": -73.9825977757573}, "transactions": ["pickup", "delivery"], "price": "$$", "location": {"address1": "1 Dekalb Ave", "address2": "", "address3": null, "city": "Brooklyn", "zip_code": "11201", "country": "US", "state": "NY", "display_address": ["1 Dekalb Ave", "Brooklyn, NY 11201"]}, "phone": "+17188580588", "display_phone": "(718) 858-0588", "distance": 1872.1778710541835}, {"id": "R26zweQ8-xoZS7iHkXQOvw", "alias": "shanghai-21-new-york-2", "name": "Shanghai 21", "image_url": "https://s3-media3.fl.yelpcdn.com/bphoto/1rNQzY87fKHPOEexZIGHGg/o.jpg", "is_closed": false, "url": "https://www.yelp.com/biz/shanghai-21-new-york-2?adjust_creative=a13dN0CY8XDTpMhWiRdWkw&utm_campaign=yelp_api_v3&utm_medium=api_v3_business_search&utm_source=a13dN0CY8XDTpMhWiRdWkw", "review_count": 1769, "categories": [{"alias": "shanghainese", "title": "Shanghainese"}], "rating": 4.0, "coordinates": {"latitude": 40.71441, "longitude": -73.99902}, "transactions": ["pickup", "delivery"], "price": "$$", "location": {"address1": "21 Mott St", "address2": "", "address3": "", "city": "New York", "zip_code": "10013", "country": "US", "state": "NY", "display_address": ["21 Mott St", "New York, NY 10013"]}, "phone": "+12127666311", "display_phone": "(212) 766-6311", "distance": 1073.6754859131381}, {"id": "rPTX2J5KGDkN1QhPD-QOvg", "alias": "bites-of-xian-brooklyn", "name": "Bites of Xi'an", "image_url": "https://s3-media2.fl.yelpcdn.com/bphoto/SiWrJqq1wyIbUWFbhjgoXQ/o.jpg", "is_closed": false, "url": "https://www.yelp.com/biz/bites-of-xian-brooklyn?adjust_creative=a13dN0CY8XDTpMhWiRdWkw&utm_campaign=yelp_api_v3&utm_medium=api_v3_business_search&utm_source=a13dN0CY8XDTpMhWiRdWkw", "review_count": 163, "categories": [{"alias": "chinese", "title": "Chinese"}], "rating": 4.5, "coordinates": {"latitude": 40.68807, "longitude": -73.98199}, "transactions": ["delivery"], "price": "$", "location": {"address1": "318 Livingston St", "address2": "", "address3": null, "city": "Brooklyn", "zip_code": "11217", "country": "US", "state": "NY", "display_address": ["318 Livingston St", "Brooklyn, NY 11217"]}, "phone": "+13478896725", "display_phone": "(347) 889-6725", "distance": 2192.812317778102}, {"id": "iSjPBJRiWqrgxW7ZM3CGig", "alias": "birds-of-a-feather-brooklyn", "name": "Birds of a Feather", "image_url": "https://s3-media3.fl.yelpcdn.com/bphoto/LCpWi2oB64WZJNaTjgmKyA/o.jpg", "is_closed": false, "url": "https://www.yelp.com/biz/birds-of-a-feather-brooklyn?adjust_creative=a13dN0CY8XDTpMhWiRdWkw&utm_campaign=yelp_api_v3&utm_medium=api_v3_business_search&utm_source=a13dN0CY8XDTpMhWiRdWkw", "review_count": 424, "categories": [{"alias": "szechuan", "title": "Szechuan"}], "rating": 4.0, "coordinates": {"latitude": 40.71442, "longitude": -73.960441}, "transactions": ["restaurant_reservation", "delivery", "pickup"], "price": "$$", "location": {"address1": "191 Grand St", "address2": "", "address3": null, "city": "Brooklyn", "zip_code": "11211", "country": "US", "state": "NY", "display_address": ["191 Grand St", "Brooklyn, NY 11211"]}, "phone": "+17189696800", "display_phone": "(718) 969-6800", "distance": 3012.406485249949}, {"id": "scTDvJ2M2jDbb1ntVeIyxA", "alias": "hao-noodle-west-village-new-york-2", "name": "Hao Noodle - West Village", "image_url": "https://s3-media4.fl.yelpcdn.com/bphoto/X-hE8s5vsTYtJ-w2k7p86w/o.jpg", "is_closed": false, "url": "https://www.yelp.com/biz/hao-noodle-west-village-new-york-2?adjust_creative=a13dN0CY8XDTpMhWiRdWkw&utm_campaign=yelp_api_v3&utm_medium=api_v3_business_search&utm_source=a13dN0CY8XDTpMhWiRdWkw", "review_count": 778, "categories": [{"alias": "chinese", "title": "Chinese"}, {"alias": "noodles", "title": "Noodles"}], "rating": 4.0, "coordinates": {"latitude": 40.7334863190479, "longitude": -73.9998929006093}, "transactions": ["pickup", "delivery"], "price": "$$", "location": {"address1": "401 6th Ave", "address2": "", "address3": "", "city": "New York", "zip_code": "10014", "country": "US", "state": "NY", "display_address": ["401 6th Ave", "New York, NY 10014"]}, "phone": "+12126338900", "display_phone": "(212) 633-8900", "distance": 3153.574300459982}, {"id": "bVkjBJlAIwKAj9Aw1KVWjA", "alias": "dim-sum-palace-new-york-8", "name": "Dim Sum Palace", "image_url": "https://s3-media4.fl.yelpcdn.com/bphoto/NqnWxno1sa9nbrb1YlvbkA/o.jpg", "is_closed": false, "url": "https://www.yelp.com/biz/dim-sum-palace-new-york-8?adjust_creative=a13dN0CY8XDTpMhWiRdWkw&utm_campaign=yelp_api_v3&utm_medium=api_v3_business_search&utm_source=a13dN0CY8XDTpMhWiRdWkw", "review_count": 1369, "categories": [{"alias": "dimsum", "title": "Dim Sum"}, {"alias": "cantonese", "title": "Cantonese"}], "rating": 4.0, "coordinates": {"latitude": 40.76015, "longitude": -73.9893699}, "transactions": ["pickup", "delivery"], "price": "$$", "location": {"address1": "334 W 46th St", "address2": null, "address3": "", "city": "New York", "zip_code": "10036", "country": "US", "state": "NY", "display_address": ["334 W 46th St", "New York, NY 10036"]}, "phone": "+16468611910", "display_phone": "(646) 861-1910", "distance": 6102.3266274330845}, {"id": "bnDfFdiCcPzhuNWUJORvLQ", "alias": "noodle-village-new-york-7", "name": "Noodle Village", "image_url": "https://s3-media4.fl.yelpcdn.com/bphoto/TwBJ_7nfanDH2CNQ-NQxQA/o.jpg", "is_closed": false, "url": "https://www.yelp.com/biz/noodle-village-new-york-7?adjust_creative=a13dN0CY8XDTpMhWiRdWkw&utm_campaign=yelp_api_v3&utm_medium=api_v3_business_search&utm_source=a13dN0CY8XDTpMhWiRdWkw", "review_count": 1194, "categories": [{"alias": "chinese", "title": "Chinese"}, {"alias": "noodles", "title": "Noodles"}], "rating": 4.0, "coordinates": {"latitude": 40.714167, "longitude": -73.998803}, "transactions": ["pickup", "delivery"], "price": "$$", "location": {"address1": "13 Mott St", "address2": "", "address3": "", "city": "New York", "zip_code": "10013", "country": "US", "state": "NY", "display_address": ["13 Mott St", "New York, NY 10013"]}, "phone": "+12122330788", "display_phone": "(212) 233-0788", "distance": 1041.687819907976}, {"id": "xVduej7-JiPrZzsFXIkIDw", "alias": "lazy-sius-brooklyn", "name": "Lazy Siu's", "image_url": "https://s3-media1.fl.yelpcdn.com/bphoto/0s0ZcA2sk__SsM_xNhwHbg/o.jpg", "is_closed": false, "url": "https://www.yelp.com/biz/lazy-sius-brooklyn?adjust_creative=a13dN0CY8XDTpMhWiRdWkw&utm_campaign=yelp_api_v3&utm_medium=api_v3_business_search&utm_source=a13dN0CY8XDTpMhWiRdWkw", "review_count": 45, "categories": [{"alias": "chinese", "title": "Chinese"}, {"alias": "bbq", "title": "Barbeque"}], "rating": 5.0, "coordinates": {"latitude": 40.71261, "longitude": -73.96077}, "transactions": ["pickup", "delivery"], "location": {"address1": "742 Driggs Ave", "address2": "", "address3": null, "city": "Brooklyn", "zip_code": "11211", "country": "US", "state": "NY", "display_address": ["742 Driggs Ave", "Brooklyn, NY 11211"]}, "phone": "+19293376352", "display_phone": "(929) 337-6352", "distance": 2933.585593999067}, {"id": "jc7lVTvmYMIK5RNpENtS6w", "alias": "szechuan-mountain-house-new-york-2", "name": "Szechuan Mountain House", "image_url": "https://s3-media2.fl.yelpcdn.com/bphoto/DkO-lKVPNYyvJMRl8es3WQ/o.jpg", "is_closed": false, "url": "https://www.yelp.com/biz/szechuan-mountain-house-new-york-2?adjust_creative=a13dN0CY8XDTpMhWiRdWkw&utm_campaign=yelp_api_v3&utm_medium=api_v3_business_search&utm_source=a13dN0CY8XDTpMhWiRdWkw", "review_count": 437, "categories": [{"alias": "szechuan", "title": "Szechuan"}], "rating": 4.5, "coordinates": {"latitude": 40.72911, "longitude": -73.98858}, "transactions": ["pickup", "delivery"], "price": "$$", "location": {"address1": "23 St Marks Pl", "address2": "", "address3": null, "city": "New York", "zip_code": "10003", "country": "US", "state": "NY", "display_address": ["23 St Marks Pl", "New York, NY 10003"]}, "phone": "+19173883866", "display_phone": "(917) 388-3866", "distance": 2686.6341472633094}, {"id": "M-odQWSEfsR2mVEw7nKG-g", "alias": "nyonya-new-york", "name": "Nyonya", "image_url": "https://s3-media2.fl.yelpcdn.com/bphoto/YuWC1Gwo7ku4PvD-7mDQnA/o.jpg", "is_closed": false, "url": "https://www.yelp.com/biz/nyonya-new-york?adjust_creative=a13dN0CY8XDTpMhWiRdWkw&utm_campaign=yelp_api_v3&utm_medium=api_v3_business_search&utm_source=a13dN0CY8XDTpMhWiRdWkw", "review_count": 2155, "categories": [{"alias": "malaysian", "title": "Malaysian"}, {"alias": "chinese", "title": "Chinese"}], "rating": 4.0, "coordinates": {"latitude": 40.7190148, "longitude": -73.9968228}, "transactions": ["delivery"], "price": "$$", "location": {"address1": "199 Grand St", "address2": "", "address3": "", "city": "New York", "zip_code": "10013", "country": "US", "state": "NY", "display_address": ["199 Grand St", "New York, NY 10013"]}, "phone": "+12123343669", "display_phone": "(212) 334-3669", "distance": 1524.9858332338151}, {"id": "olRNNJCJ2TJvPRmjBiOcGA", "alias": "silky-kitchen-new-york-3", "name": "Silky Kitchen", "image_url": "https://s3-media1.fl.yelpcdn.com/bphoto/YFkv6-Z4Ax0mtwMkIjUDPA/o.jpg", "is_closed": false, "url": "https://www.yelp.com/biz/silky-kitchen-new-york-3?adjust_creative=a13dN0CY8XDTpMhWiRdWkw&utm_campaign=yelp_api_v3&utm_medium=api_v3_business_search&utm_source=a13dN0CY8XDTpMhWiRdWkw", "review_count": 244, "categories": [{"alias": "chinese", "title": "Chinese"}, {"alias": "noodles", "title": "Noodles"}], "rating": 4.5, "coordinates": {"latitude": 40.73297, "longitude": -73.98829}, "transactions": ["pickup", "delivery"], "price": "$$", "location": {"address1": "137 E 13th St", "address2": "", "address3": null, "city": "New York", "zip_code": "10003", "country": "US", "state": "NY", "display_address": ["137 E 13th St", "New York, NY 10003"]}, "phone": "+16468500635", "display_phone": "(646) 850-0635", "distance": 3099.0828505233635}, {"id": "wqdFd3DZD_uTXRW784mFkg", "alias": "a-pous-taste-brooklyn-2", "name": "A-Pou's Taste", "image_url": "https://s3-media4.fl.yelpcdn.com/bphoto/xl5eqyVYo9bVVRwOMGVBgw/o.jpg", "is_closed": false, "url": "https://www.yelp.com/biz/a-pous-taste-brooklyn-2?adjust_creative=a13dN0CY8XDTpMhWiRdWkw&utm_campaign=yelp_api_v3&utm_medium=api_v3_business_search&utm_source=a13dN0CY8XDTpMhWiRdWkw", "review_count": 78, "categories": [{"alias": "taiwanese", "title": "Taiwanese"}, {"alias": "noodles", "title": "Noodles"}, {"alias": "chinese", "title": "Chinese"}], "rating": 4.5, "coordinates": {"latitude": 40.71326, "longitude": -73.93616}, "transactions": ["pickup", "delivery"], "price": "$", "location": {"address1": "963 Grand St", "address2": "", "address3": null, "city": "Brooklyn", "zip_code": "11211", "country": "US", "state": "NY", "display_address": ["963 Grand St", "Brooklyn, NY 11211"]}, "phone": "+17183883038", "display_phone": "(718) 388-3038", "distance": 4977.457105832991}, {"id": "3gqKLANaXNsHZnPDjKrcTg", "alias": "win-son-brooklyn-4", "name": "Win Son", "image_url": "https://s3-media4.fl.yelpcdn.com/bphoto/EXCnl7qaa1wEQMWMI6ZqRQ/o.jpg", "is_closed": false, "url": "https://www.yelp.com/biz/win-son-brooklyn-4?adjust_creative=a13dN0CY8XDTpMhWiRdWkw&utm_campaign=yelp_api_v3&utm_medium=api_v3_business_search&utm_source=a13dN0CY8XDTpMhWiRdWkw", "review_count": 563, "categories": [{"alias": "taiwanese", "title": "Taiwanese"}, {"alias": "newamerican", "title": "American (New)"}], "rating": 4.0, "coordinates": {"latitude": 40.70747, "longitude": -73.94339}, "transactions": ["delivery"], "price": "$$", "location": {"address1": "159 Graham Ave", "address2": null, "address3": "", "city": "Brooklyn", "zip_code": "11206", "country": "US", "state": "NY", "display_address": ["159 Graham Ave", "Brooklyn, NY 11206"]}, "phone": "+13474576010", "display_phone": "(347) 457-6010", "distance": 4288.123697814991}, {"id": "sQw7aEos_0FmO0UFtrJokg", "alias": "clay-pot-west-village-new-york-2", "name": "Clay Pot - West Village", "image_url": "https://s3-media2.fl.yelpcdn.com/bphoto/whFu6V5xMjIeK4ZhoKJdDA/o.jpg", "is_closed": false, "url": "https://www.yelp.com/biz/clay-pot-west-village-new-york-2?adjust_creative=a13dN0CY8XDTpMhWiRdWkw&utm_campaign=yelp_api_v3&utm_medium=api_v3_business_search&utm_source=a13dN0CY8XDTpMhWiRdWkw", "review_count": 108, "categories": [{"alias": "chinese", "title": "Chinese"}], "rating": 4.5, "coordinates": {"latitude": 40.73138, "longitude": -74.00319}, "transactions": ["pickup", "delivery"], "price": "$$", "location": {"address1": "270 Bleeker St", "address2": null, "address3": "", "city": "New York", "zip_code": "10014", "country": "US", "state": "NY", "display_address": ["270 Bleeker St", "New York, NY 10014"]}, "phone": "+19177756159", "display_phone": "(917) 775-6159", "distance": 2977.5019905000745}, {"id": "wDuf4Qz9qsC62amLZgWNJQ", "alias": "little-alley-new-york", "name": "Little Alley", "image_url": "https://s3-media2.fl.yelpcdn.com/bphoto/TUEvUL0vFghtB1byZRw7cg/o.jpg", "is_closed": false, "url": "https://www.yelp.com/biz/little-alley-new-york?adjust_creative=a13dN0CY8XDTpMhWiRdWkw&utm_campaign=yelp_api_v3&utm_medium=api_v3_business_search&utm_source=a13dN0CY8XDTpMhWiRdWkw", "review_count": 399, "categories": [{"alias": "shanghainese", "title": "Shanghainese"}], "rating": 4.0, "coordinates": {"latitude": 40.74744, "longitude": -73.97728}, "transactions": ["pickup", "delivery"], "price": "$$", "location": {"address1": "550 3rd Ave", "address2": null, "address3": "", "city": "New York", "zip_code": "10016", "country": "US", "state": "NY", "display_address": ["550 3rd Ave", "New York, NY 10016"]}, "phone": "+16469983976", "display_phone": "(646) 998-3976", "distance": 4884.401375532534}, {"id": "vZgJyMZlpSSS_Y-duxd4_A", "alias": "kings-co-imperial-brooklyn", "name": "Kings Co Imperial", "image_url": "https://s3-media1.fl.yelpcdn.com/bphoto/4DtrNVOVRo1Zj0Ye10EkOg/o.jpg", "is_closed": false, "url": "https://www.yelp.com/biz/kings-co-imperial-brooklyn?adjust_creative=a13dN0CY8XDTpMhWiRdWkw&utm_campaign=yelp_api_v3&utm_medium=api_v3_business_search&utm_source=a13dN0CY8XDTpMhWiRdWkw", "review_count": 343, "categories": [{"alias": "dimsum", "title": "Dim Sum"}, {"alias": "noodles", "title": "Noodles"}, {"alias": "szechuan", "title": "Szechuan"}], "rating": 4.0, "coordinates": {"latitude": 40.71512, "longitude": -73.95097}, "transactions": ["pickup", "delivery"], "price": "$$", "location": {"address1": "20 Skillman Ave", "address2": "", "address3": "", "city": "Brooklyn", "zip_code": "11211", "country": "US", "state": "NY", "display_address": ["20 Skillman Ave", "Brooklyn, NY 11211"]}, "phone": "+17186102000", "display_phone": "(718) 610-2000", "distance": 3807.7319449460683}, {"id": "rYw5rQbWRX9buZHZbxqWdA", "alias": "congee-village-new-york", "name": "Congee Village", "image_url": "https://s3-media3.fl.yelpcdn.com/bphoto/Nccuu7yqWhOiEtuqozq9DA/o.jpg", "is_closed": false, "url": "https://www.yelp.com/biz/congee-village-new-york?adjust_creative=a13dN0CY8XDTpMhWiRdWkw&utm_campaign=yelp_api_v3&utm_medium=api_v3_business_search&utm_source=a13dN0CY8XDTpMhWiRdWkw", "review_count": 1633, "categories": [{"alias": "cantonese", "title": "Cantonese"}, {"alias": "seafood", "title": "Seafood"}], "rating": 3.5, "coordinates": {"latitude": 40.7187, "longitude": -73.99031}, "transactions": ["pickup", "delivery"], "price": "$$", "location": {"address1": "100 Allen St", "address2": "", "address3": "", "city": "New York", "zip_code": "10002", "country": "US", "state": "NY", "display_address": ["100 Allen St", "New York, NY 10002"]}, "phone": "+12129411818", "display_phone": "(212) 941-1818", "distance": 1506.9093475842137}, {"id": "DpfE0gPBXj-aj2pnEh4E2Q", "alias": "wei-williamsburg-brooklyn", "name": "Wei Williamsburg", "image_url": "https://s3-media3.fl.yelpcdn.com/bphoto/LNgR4BdMlEr-i1XXUJbO6A/o.jpg", "is_closed": false, "url": "https://www.yelp.com/biz/wei-williamsburg-brooklyn?adjust_creative=a13dN0CY8XDTpMhWiRdWkw&utm_campaign=yelp_api_v3&utm_medium=api_v3_business_search&utm_source=a13dN0CY8XDTpMhWiRdWkw", "review_count": 180, "categories": [{"alias": "chinese", "title": "Chinese"}], "rating": 4.0, "coordinates": {"latitude": 40.7107868, "longitude": -73.9542168}, "transactions": ["pickup", "delivery"], "price": "$$", "location": {"address1": "145 Borinquen Pl", "address2": null, "address3": "", "city": "Brooklyn", "zip_code": "11211", "country": "US", "state": "NY", "display_address": ["145 Borinquen Pl", "Brooklyn, NY 11211"]}, "phone": "+17183601908", "display_phone": "(718) 360-1908", "distance": 3461.341384289627}, {"id": "97q5nUQTuBo_h00XCxna2A", "alias": "tasty-hand-pulled-noodles-new-york", "name": "Tasty Hand-Pulled Noodles", "image_url": "https://s3-media4.fl.yelpcdn.com/bphoto/S4YfmBNkmDl7l2aiYJwBuA/o.jpg", "is_closed": false, "url": "https://www.yelp.com/biz/tasty-hand-pulled-noodles-new-york?adjust_creative=a13dN0CY8XDTpMhWiRdWkw&utm_campaign=yelp_api_v3&utm_medium=api_v3_business_search&utm_source=a13dN0CY8XDTpMhWiRdWkw", "review_count": 1663, "categories": [{"alias": "chinese", "title": "Chinese"}, {"alias": "noodles", "title": "Noodles"}], "rating": 4.0, "coordinates": {"latitude": 40.7142, "longitude": -73.99787}, "transactions": ["pickup", "delivery"], "price": "$$", "location": {"address1": "1 Doyers St", "address2": "", "address3": "", "city": "New York", "zip_code": "10013", "country": "US", "state": "NY", "display_address": ["1 Doyers St", "New York, NY 10013"]}, "phone": "+12127911817", "display_phone": "(212) 791-1817", "distance": 1017.7282412658462}, {"id": "xCHApgtkLpEyh0lz-uhZvg", "alias": "szechuan-garden-new-york", "name": "Szechuan Garden", "image_url": "https://s3-media1.fl.yelpcdn.com/bphoto/g0szneLpAM3H6Ur6qyv_Ag/o.jpg", "is_closed": false, "url": "https://www.yelp.com/biz/szechuan-garden-new-york?adjust_creative=a13dN0CY8XDTpMhWiRdWkw&utm_campaign=yelp_api_v3&utm_medium=api_v3_business_search&utm_source=a13dN0CY8XDTpMhWiRdWkw", "review_count": 332, "categories": [{"alias": "szechuan", "title": "Szechuan"}, {"alias": "dimsum", "title": "Dim Sum"}, {"alias": "seafood", "title": "Seafood"}], "rating": 4.0, "coordinates": {"latitude": 40.80053, "longitude": -73.967586}, "transactions": ["pickup", "delivery"], "price": "$$", "location": {"address1": "239 W 105th St", "address2": "", "address3": "", "city": "New York", "zip_code": "10025", "country": "US", "state": "NY", "display_address": ["239 W 105th St", "New York, NY 10025"]}, "phone": "+12128658808", "display_phone": "(212) 865-8808", "distance": 10812.066604467627}, {"id": "nI1UYDCYUTt23TpGxqnLKg", "alias": "buddakan-new-york", "name": "Buddakan", "image_url": "https://s3-media4.fl.yelpcdn.com/bphoto/JJ6WiHxZmX3gKyllSteBmA/o.jpg", "is_closed": false, "url": "https://www.yelp.com/biz/buddakan-new-york?adjust_creative=a13dN0CY8XDTpMhWiRdWkw&utm_campaign=yelp_api_v3&utm_medium=api_v3_business_search&utm_source=a13dN0CY8XDTpMhWiRdWkw", "review_count": 4139, "categories": [{"alias": "chinese", "title": "Chinese"}, {"alias": "bars", "title": "Bars"}, {"alias": "asianfusion", "title": "Asian Fusion"}], "rating": 4.0, "coordinates": {"latitude": 40.7422762672197, "longitude": -74.0048000961542}, "transactions": ["pickup", "delivery"], "price": "$$$$", "location": {"address1": "75 9th Ave", "address2": null, "address3": "", "city": "New York", "zip_code": "10011", "country": "US", "state": "NY", "display_address": ["75 9th Ave", "New York, NY 10011"]}, "phone": "+12129896699", "display_phone": "(212) 989-6699", "distance": 4190.079294335545}, {"id": "cOtB9fWWLrbaBebZDjJquQ", "alias": "dunhuang-miss-noodles-brooklyn", "name": "DunHuang Miss Noodles", "image_url": "https://s3-media4.fl.yelpcdn.com/bphoto/RrlOuwLfm1pi5oqXk6CN4Q/o.jpg", "is_closed": false, "url": "https://www.yelp.com/biz/dunhuang-miss-noodles-brooklyn?adjust_creative=a13dN0CY8XDTpMhWiRdWkw&utm_campaign=yelp_api_v3&utm_medium=api_v3_business_search&utm_source=a13dN0CY8XDTpMhWiRdWkw", "review_count": 60, "categories": [{"alias": "chinese", "title": "Chinese"}, {"alias": "noodles", "title": "Noodles"}, {"alias": "asianfusion", "title": "Asian Fusion"}], "rating": 4.0, "coordinates": {"latitude": 40.693868137768895, "longitude": -73.9634565145772}, "transactions": ["pickup", "delivery"], "location": {"address1": "531 Myrtle Ave", "address2": null, "address3": "", "city": "Brooklyn", "zip_code": "11205", "country": "US", "state": "NY", "display_address": ["531 Myrtle Ave", "Brooklyn, NY 11205"]}, "phone": "+17187893530", "display_phone": "(718) 789-3530", "distance": 2900.8291200464364}, {"id": "Kqb7MjTPNkjPMoFRd-rWpw", "alias": "m\u00e1l\u00e0-project-new-york", "name": "M\u00e1L\u00e0 Project", "image_url": "https://s3-media4.fl.yelpcdn.com/bphoto/PFR2C4TiLBTUcMUpznUXlg/o.jpg", "is_closed": false, "url": "https://www.yelp.com/biz/m%C3%A1l%C3%A0-project-new-york?adjust_creative=a13dN0CY8XDTpMhWiRdWkw&utm_campaign=yelp_api_v3&utm_medium=api_v3_business_search&utm_source=a13dN0CY8XDTpMhWiRdWkw", "review_count": 737, "categories": [{"alias": "szechuan", "title": "Szechuan"}, {"alias": "hotpot", "title": "Hot Pot"}], "rating": 4.0, "coordinates": {"latitude": 40.72713, "longitude": -73.98542}, "transactions": ["pickup", "delivery"], "price": "$$", "location": {"address1": "122 1st Ave", "address2": "", "address3": "", "city": "New York", "zip_code": "10009", "country": "US", "state": "NY", "display_address": ["122 1st Ave", "New York, NY 10009"]}, "phone": "+12123538880", "display_phone": "(212) 353-8880", "distance": 2523.2680723643457}, {"id": "SNhDVaf_n7VDZcfry8mYdA", "alias": "the-bao-new-york", "name": "The Bao", "image_url": "https://s3-media1.fl.yelpcdn.com/bphoto/mxfoOB6li2czAr87PhH3aQ/o.jpg", "is_closed": false, "url": "https://www.yelp.com/biz/the-bao-new-york?adjust_creative=a13dN0CY8XDTpMhWiRdWkw&utm_campaign=yelp_api_v3&utm_medium=api_v3_business_search&utm_source=a13dN0CY8XDTpMhWiRdWkw", "review_count": 1281, "categories": [{"alias": "shanghainese", "title": "Shanghainese"}, {"alias": "dimsum", "title": "Dim Sum"}, {"alias": "salad", "title": "Salad"}], "rating": 4.0, "coordinates": {"latitude": 40.72939, "longitude": -73.9889199}, "transactions": ["pickup", "delivery"], "price": "$$", "location": {"address1": "13 St Marks Pl", "address2": "", "address3": "", "city": "New York", "zip_code": "10003", "country": "US", "state": "NY", "display_address": ["13 St Marks Pl", "New York, NY 10003"]}, "phone": "+12123889238", "display_phone": "(212) 388-9238", "distance": 2697.5233343657724}, {"id": "xLJnT-pB4VECJzmUf1Whpg", "alias": "3-times-new-york-5", "name": "3 Times", "image_url": "https://s3-media2.fl.yelpcdn.com/bphoto/uBC9JN_S03qqWTCF_eNnwA/o.jpg", "is_closed": false, "url": "https://www.yelp.com/biz/3-times-new-york-5?adjust_creative=a13dN0CY8XDTpMhWiRdWkw&utm_campaign=yelp_api_v3&utm_medium=api_v3_business_search&utm_source=a13dN0CY8XDTpMhWiRdWkw", "review_count": 147, "categories": [{"alias": "dimsum", "title": "Dim Sum"}, {"alias": "shanghainese", "title": "Shanghainese"}, {"alias": "noodles", "title": "Noodles"}], "rating": 4.5, "coordinates": {"latitude": 40.718271, "longitude": -73.985209}, "transactions": ["restaurant_reservation", "delivery", "pickup"], "price": "$$", "location": {"address1": "90 Clinton St", "address2": "", "address3": null, "city": "New York", "zip_code": "10002", "country": "US", "state": "NY", "display_address": ["90 Clinton St", "New York, NY 10002"]}, "phone": "+16466096324", "display_phone": "(646) 609-6324", "distance": 1616.388397109797}, {"id": "8Oo2AtQEPDfxIOnA8wfXoQ", "alias": "886-new-york", "name": "886", "image_url": "https://s3-media3.fl.yelpcdn.com/bphoto/N-V-Dl4nrmMhN1TcVt6a8g/o.jpg", "is_closed": false, "url": "https://www.yelp.com/biz/886-new-york?adjust_creative=a13dN0CY8XDTpMhWiRdWkw&utm_campaign=yelp_api_v3&utm_medium=api_v3_business_search&utm_source=a13dN0CY8XDTpMhWiRdWkw", "review_count": 458, "categories": [{"alias": "taiwanese", "title": "Taiwanese"}, {"alias": "asianfusion", "title": "Asian Fusion"}], "rating": 4.0, "coordinates": {"latitude": 40.72877, "longitude": -73.98873}, "transactions": ["pickup", "delivery"], "price": "$$", "location": {"address1": "26 Saint Marks Pl", "address2": "", "address3": null, "city": "New York", "zip_code": "10003", "country": "US", "state": "NY", "display_address": ["26 Saint Marks Pl", "New York, NY 10003"]}, "phone": "+16468820231", "display_phone": "(646) 882-0231", "distance": 2638.0802791580863}, {"id": "C3tP0fNNAoxOAC3O406CXQ", "alias": "le-sia-new-york-4", "name": "Le Sia", "image_url": "https://s3-media1.fl.yelpcdn.com/bphoto/Hqr4G8WYzkjqHOr_VOQyKQ/o.jpg", "is_closed": false, "url": "https://www.yelp.com/biz/le-sia-new-york-4?adjust_creative=a13dN0CY8XDTpMhWiRdWkw&utm_campaign=yelp_api_v3&utm_medium=api_v3_business_search&utm_source=a13dN0CY8XDTpMhWiRdWkw", "review_count": 72, "categories": [{"alias": "asianfusion", "title": "Asian Fusion"}, {"alias": "chinese", "title": "Chinese"}, {"alias": "cajun", "title": "Cajun/Creole"}], "rating": 4.5, "coordinates": {"latitude": 40.76072, "longitude": -73.99119}, "transactions": ["pickup", "delivery"], "price": "$$$", "location": {"address1": "651 9th Ave", "address2": "", "address3": null, "city": "New York", "zip_code": "10036", "country": "US", "state": "NY", "display_address": ["651 9th Ave", "New York, NY 10036"]}, "phone": "+16465595220", "display_phone": "(646) 559-5220", "distance": 6155.955879295095}, {"id": "ojbH3wnRu050hRhkmoxRiA", "alias": "han-dynasty-new-york-4", "name": "Han Dynasty", "image_url": "https://s3-media3.fl.yelpcdn.com/bphoto/-aIQqghSAjISvaYL-9w5oA/o.jpg", "is_closed": false, "url": "https://www.yelp.com/biz/han-dynasty-new-york-4?adjust_creative=a13dN0CY8XDTpMhWiRdWkw&utm_campaign=yelp_api_v3&utm_medium=api_v3_business_search&utm_source=a13dN0CY8XDTpMhWiRdWkw", "review_count": 628, "categories": [{"alias": "szechuan", "title": "Szechuan"}], "rating": 4.0, "coordinates": {"latitude": 40.78752, "longitude": -73.97647}, "transactions": ["pickup", "delivery"], "price": "$$", "location": {"address1": "215 W 85th St", "address2": "", "address3": "", "city": "New York", "zip_code": "10024", "country": "US", "state": "NY", "display_address": ["215 W 85th St", "New York, NY 10024"]}, "phone": "+12128589060", "display_phone": "(212) 858-9060", "distance": 9254.42805459871}, {"id": "U2aUFZARLeSMf4RQIxjuTw", "alias": "lucky-house-kitchen-brooklyn", "name": "Lucky House Kitchen", "image_url": "https://s3-media2.fl.yelpcdn.com/bphoto/W1gxn2t0DSWFyx972XNWpA/o.jpg", "is_closed": false, "url": "https://www.yelp.com/biz/lucky-house-kitchen-brooklyn?adjust_creative=a13dN0CY8XDTpMhWiRdWkw&utm_campaign=yelp_api_v3&utm_medium=api_v3_business_search&utm_source=a13dN0CY8XDTpMhWiRdWkw", "review_count": 106, "categories": [{"alias": "chinese", "title": "Chinese"}], "rating": 4.5, "coordinates": {"latitude": 40.6838402152061, "longitude": -73.9351565390825}, "transactions": [], "price": "$", "location": {"address1": "343 Lewis Ave", "address2": "", "address3": "", "city": "Brooklyn", "zip_code": "11233", "country": "US", "state": "NY", "display_address": ["343 Lewis Ave", "Brooklyn, NY 11233"]}, "phone": "+17184432298", "display_phone": "(718) 443-2298", "distance": 5544.456640284258}, {"id": "pCfGgX0WxGASGM4-Yhr2Pw", "alias": "hao-noodle-chelsea-new-york-7", "name": "Hao Noodle Chelsea", "image_url": "https://s3-media2.fl.yelpcdn.com/bphoto/WbBI5Kd8FAegVcV1g-BkyQ/o.jpg", "is_closed": false, "url": "https://www.yelp.com/biz/hao-noodle-chelsea-new-york-7?adjust_creative=a13dN0CY8XDTpMhWiRdWkw&utm_campaign=yelp_api_v3&utm_medium=api_v3_business_search&utm_source=a13dN0CY8XDTpMhWiRdWkw", "review_count": 462, "categories": [{"alias": "chinese", "title": "Chinese"}, {"alias": "bbq", "title": "Barbeque"}, {"alias": "noodles", "title": "Noodles"}], "rating": 4.5, "coordinates": {"latitude": 40.7406999, "longitude": -74.00436}, "transactions": ["pickup", "delivery"], "price": "$$", "location": {"address1": "343 W 14th St", "address2": "", "address3": null, "city": "New York", "zip_code": "10014", "country": "US", "state": "NY", "display_address": ["343 W 14th St", "New York, NY 10014"]}, "phone": "+16468820059", "display_phone": "(646) 882-0059", "distance": 4014.0194931947067}, {"id": "BkXb82Y2OIsQ5RpNNQOYmQ", "alias": "china-express-brooklyn-4", "name": "China Express", "image_url": "https://s3-media3.fl.yelpcdn.com/bphoto/6oTE-vhUO0flYTIQoeXjgw/o.jpg", "is_closed": false, "url": "https://www.yelp.com/biz/china-express-brooklyn-4?adjust_creative=a13dN0CY8XDTpMhWiRdWkw&utm_campaign=yelp_api_v3&utm_medium=api_v3_business_search&utm_source=a13dN0CY8XDTpMhWiRdWkw", "review_count": 119, "categories": [{"alias": "chinese", "title": "Chinese"}], "rating": 4.0, "coordinates": {"latitude": 40.7061859, "longitude": -73.9501435}, "transactions": ["pickup", "delivery"], "price": "$", "location": {"address1": "192 Union Ave", "address2": "", "address3": "", "city": "Brooklyn", "zip_code": "11211", "country": "US", "state": "NY", "display_address": ["192 Union Ave", "Brooklyn, NY 11211"]}, "phone": "+17182187919", "display_phone": "(718) 218-7919", "distance": 3734.901068347167}, {"id": "UK1oGbr8GU2rufpnJR4-HQ", "alias": "joes-home-of-soup-dumplings-new-york", "name": "Joe's Home of Soup Dumplings", "image_url": "https://s3-media1.fl.yelpcdn.com/bphoto/GY04xwX3RMnbSLmPizy1eA/o.jpg", "is_closed": false, "url": "https://www.yelp.com/biz/joes-home-of-soup-dumplings-new-york?adjust_creative=a13dN0CY8XDTpMhWiRdWkw&utm_campaign=yelp_api_v3&utm_medium=api_v3_business_search&utm_source=a13dN0CY8XDTpMhWiRdWkw", "review_count": 83, "categories": [{"alias": "shanghainese", "title": "Shanghainese"}, {"alias": "noodles", "title": "Noodles"}], "rating": 5.0, "coordinates": {"latitude": 40.75723, "longitude": -73.97702}, "transactions": ["pickup", "delivery"], "price": "$$", "location": {"address1": "7 E 48th St", "address2": "between Fifth and Madison avenues", "address3": null, "city": "New York", "zip_code": "10017", "country": "US", "state": "NY", "display_address": ["7 E 48th St", "between Fifth and Madison avenues", "New York, NY 10017"]}, "phone": "+12123333868", "display_phone": "(212) 333-3868", "distance": 5927.153870834341}, {"id": "2wVirrAVg3ltAFHoHeXHMQ", "alias": "dim-sum-palace-new-york-9", "name": "Dim Sum Palace", "image_url": "https://s3-media2.fl.yelpcdn.com/bphoto/eSaOLayWbkTQ9r3fq1evzg/o.jpg", "is_closed": false, "url": "https://www.yelp.com/biz/dim-sum-palace-new-york-9?adjust_creative=a13dN0CY8XDTpMhWiRdWkw&utm_campaign=yelp_api_v3&utm_medium=api_v3_business_search&utm_source=a13dN0CY8XDTpMhWiRdWkw", "review_count": 225, "categories": [{"alias": "dimsum", "title": "Dim Sum"}, {"alias": "cantonese", "title": "Cantonese"}, {"alias": "desserts", "title": "Desserts"}], "rating": 4.5, "coordinates": {"latitude": 40.7259, "longitude": -73.98986}, "transactions": ["restaurant_reservation", "pickup", "delivery"], "price": "$$", "location": {"address1": "59 2nd Ave", "address2": null, "address3": "", "city": "New York", "zip_code": "10003", "country": "US", "state": "NY", "display_address": ["59 2nd Ave", "New York, NY 10003"]}, "phone": "+16464768846", "display_phone": "(646) 476-8846", "distance": 2309.8668756613047}, {"id": "FXhSEZfIqjMZh4hR0_8jMQ", "alias": "china-xiang-\u4e2d\u56fd\u6e58-new-york-2", "name": "China Xiang \u4e2d\u56fd\u6e58", "image_url": "https://s3-media3.fl.yelpcdn.com/bphoto/MC6-poc5wb7mP-jO7qfHHw/o.jpg", "is_closed": false, "url": "https://www.yelp.com/biz/china-xiang-%E4%B8%AD%E5%9B%BD%E6%B9%98-new-york-2?adjust_creative=a13dN0CY8XDTpMhWiRdWkw&utm_campaign=yelp_api_v3&utm_medium=api_v3_business_search&utm_source=a13dN0CY8XDTpMhWiRdWkw", "review_count": 501, "categories": [{"alias": "chinese", "title": "Chinese"}], "rating": 4.0, "coordinates": {"latitude": 40.7582902125633, "longitude": -73.9925113993899}, "transactions": ["pickup", "delivery"], "price": "$$", "location": {"address1": "360 W 42nd Street", "address2": "", "address3": "", "city": "New York", "zip_code": "10036", "country": "US", "state": "NY", "display_address": ["360 W 42nd Street", "New York, NY 10036"]}, "phone": "+12129676088", "display_phone": "(212) 967-6088", "distance": 5878.045777624759}, {"id": "Bb0h5Rs8ugSM2CjulRhfBw", "alias": "spicy-moon-east-village-new-york", "name": "Spicy Moon East Village", "image_url": "https://s3-media3.fl.yelpcdn.com/bphoto/5xj4ZyYiECeK7Z3sFmOwCA/o.jpg", "is_closed": false, "url": "https://www.yelp.com/biz/spicy-moon-east-village-new-york?adjust_creative=a13dN0CY8XDTpMhWiRdWkw&utm_campaign=yelp_api_v3&utm_medium=api_v3_business_search&utm_source=a13dN0CY8XDTpMhWiRdWkw", "review_count": 445, "categories": [{"alias": "szechuan", "title": "Szechuan"}, {"alias": "vegan", "title": "Vegan"}], "rating": 4.5, "coordinates": {"latitude": 40.72674, "longitude": -73.98722}, "transactions": ["restaurant_reservation", "pickup", "delivery"], "price": "$$", "location": {"address1": "328 E 6th St", "address2": "", "address3": null, "city": "New York", "zip_code": "10003", "country": "US", "state": "NY", "display_address": ["328 E 6th St", "New York, NY 10003"]}, "phone": "+16464298471", "display_phone": "(646) 429-8471", "distance": 2437.632855284239}, {"id": "lQ8Fzgji9qmgRXkFcvAsVQ", "alias": "chong-qing-xiao-mian-new-york-2", "name": "Chong Qing Xiao Mian", "image_url": "https://s3-media1.fl.yelpcdn.com/bphoto/z1UDqQoreZSEEVEgtlI8pg/o.jpg", "is_closed": false, "url": "https://www.yelp.com/biz/chong-qing-xiao-mian-new-york-2?adjust_creative=a13dN0CY8XDTpMhWiRdWkw&utm_campaign=yelp_api_v3&utm_medium=api_v3_business_search&utm_source=a13dN0CY8XDTpMhWiRdWkw", "review_count": 318, "categories": [{"alias": "chinese", "title": "Chinese"}, {"alias": "noodles", "title": "Noodles"}], "rating": 4.0, "coordinates": {"latitude": 40.76513, "longitude": -73.98753}, "transactions": ["pickup", "delivery"], "price": "$$", "location": {"address1": "796 9th Ave", "address2": "", "address3": null, "city": "New York", "zip_code": "10019", "country": "US", "state": "NY", "display_address": ["796 9th Ave", "New York, NY 10019"]}, "phone": "+12125828866", "display_phone": "(212) 582-8866", "distance": 6661.428754177582}, {"id": "FcHVRbMcYY-D1Glzwo3ofA", "alias": "mr-bao-brooklyn", "name": "Mr. Bao", "image_url": "https://s3-media4.fl.yelpcdn.com/bphoto/DOtT38IBRaEdOMnNDrFlTA/o.jpg", "is_closed": false, "url": "https://www.yelp.com/biz/mr-bao-brooklyn?adjust_creative=a13dN0CY8XDTpMhWiRdWkw&utm_campaign=yelp_api_v3&utm_medium=api_v3_business_search&utm_source=a13dN0CY8XDTpMhWiRdWkw", "review_count": 102, "categories": [{"alias": "shanghainese", "title": "Shanghainese"}, {"alias": "asianfusion", "title": "Asian Fusion"}], "rating": 4.5, "coordinates": {"latitude": 40.677216, "longitude": -73.979754}, "transactions": [], "location": {"address1": "179 5th Ave", "address2": null, "address3": "", "city": "Brooklyn", "zip_code": "11217", "country": "US", "state": "NY", "display_address": ["179 5th Ave", "Brooklyn, NY 11217"]}, "phone": "", "display_phone": "", "distance": 3369.4425765065284}, {"id": "A_fZL0ir_actclrL-ePTOw", "alias": "jj-kitchen-brooklyn", "name": "JJ Kitchen", "image_url": "https://s3-media4.fl.yelpcdn.com/bphoto/folvsIJywU5yshKGhyBVsQ/o.jpg", "is_closed": false, "url": "https://www.yelp.com/biz/jj-kitchen-brooklyn?adjust_creative=a13dN0CY8XDTpMhWiRdWkw&utm_campaign=yelp_api_v3&utm_medium=api_v3_business_search&utm_source=a13dN0CY8XDTpMhWiRdWkw", "review_count": 28, "categories": [{"alias": "chinese", "title": "Chinese"}], "rating": 4.5, "coordinates": {"latitude": 40.69354, "longitude": -73.96627}, "transactions": ["pickup", "delivery"], "location": {"address1": "475 B Myrtle Ave", "address2": "", "address3": "", "city": "Brooklyn", "zip_code": "11205", "country": "US", "state": "NY", "display_address": ["475 B Myrtle Ave", "Brooklyn, NY 11205"]}, "phone": "+17186360468", "display_phone": "(718) 636-0468", "distance": 2704.135502473467}, {"id": "w3wKbjuNCZnYoPOr-FCk5w", "alias": "new-moon-new-york", "name": "New Moon", "image_url": "https://s3-media1.fl.yelpcdn.com/bphoto/kE6lAgB1pe-FWe1NUzdeaQ/o.jpg", "is_closed": false, "url": "https://www.yelp.com/biz/new-moon-new-york?adjust_creative=a13dN0CY8XDTpMhWiRdWkw&utm_campaign=yelp_api_v3&utm_medium=api_v3_business_search&utm_source=a13dN0CY8XDTpMhWiRdWkw", "review_count": 170, "categories": [{"alias": "chinese", "title": "Chinese"}], "rating": 4.0, "coordinates": {"latitude": 40.742569, "longitude": -73.977856}, "transactions": ["pickup", "delivery"], "price": "$$", "location": {"address1": "547 2nd Ave", "address2": "", "address3": null, "city": "New York", "zip_code": "10016", "country": "US", "state": "NY", "display_address": ["547 2nd Ave", "New York, NY 10016"]}, "phone": "+12127792828", "display_phone": "(212) 779-2828", "distance": 4355.435031227419}, {"id": "kueEZRLEaNVo6Cow3hf56Q", "alias": "nice-day-chinese-new-york-3", "name": "Nice Day Chinese", "image_url": "https://s3-media3.fl.yelpcdn.com/bphoto/NZf4Ef9maIUr1vMBlHXZ9Q/o.jpg", "is_closed": false, "url": "https://www.yelp.com/biz/nice-day-chinese-new-york-3?adjust_creative=a13dN0CY8XDTpMhWiRdWkw&utm_campaign=yelp_api_v3&utm_medium=api_v3_business_search&utm_source=a13dN0CY8XDTpMhWiRdWkw", "review_count": 51, "categories": [{"alias": "chinese", "title": "Chinese"}], "rating": 4.5, "coordinates": {"latitude": 40.72867, "longitude": -74.0007}, "transactions": ["pickup", "delivery"], "price": "$$", "location": {"address1": "170 Bleecker St", "address2": null, "address3": "", "city": "New York", "zip_code": "10012", "country": "US", "state": "NY", "display_address": ["170 Bleecker St", "New York, NY 10012"]}, "phone": "+19292601030", "display_phone": "(929) 260-1030", "distance": 2640.420280567424}, {"id": "sBCJYLPNJuagg-aJ3Y_ozQ", "alias": "cheli-new-york-4", "name": "Cheli", "image_url": "https://s3-media2.fl.yelpcdn.com/bphoto/1y4Esl0TXckm-aBXWnrhYg/o.jpg", "is_closed": false, "url": "https://www.yelp.com/biz/cheli-new-york-4?adjust_creative=a13dN0CY8XDTpMhWiRdWkw&utm_campaign=yelp_api_v3&utm_medium=api_v3_business_search&utm_source=a13dN0CY8XDTpMhWiRdWkw", "review_count": 74, "categories": [{"alias": "shanghainese", "title": "Shanghainese"}], "rating": 4.0, "coordinates": {"latitude": 40.72925, "longitude": -73.9886}, "transactions": [], "location": {"address1": "19 St Marks Pl", "address2": "Ste 23", "address3": null, "city": "New York", "zip_code": "10003", "country": "US", "state": "NY", "display_address": ["19 St Marks Pl", "Ste 23", "New York, NY 10003"]}, "phone": "+16468581866", "display_phone": "(646) 858-1866", "distance": 2681.5937612093044}], "total": 240, "region": {"center": {"longitude": -73.99429321289062, "latitude": 40.70544486444615}}}