{"businesses": [{"id": "FlZ1zdVEKWv7dwqm8Uw8-w", "alias": "raku-new-york-7", "name": "Raku", "image_url": "https://s3-media4.fl.yelpcdn.com/bphoto/GEbZnH1jR4n7D5WOJ3urPg/o.jpg", "is_closed": false, "url": "https://www.yelp.com/biz/raku-new-york-7?adjust_creative=a13dN0CY8XDTpMhWiRdWkw&utm_campaign=yelp_api_v3&utm_medium=api_v3_business_search&utm_source=a13dN0CY8XDTpMhWiRdWkw", "review_count": 1204, "categories": [{"alias": "japanese", "title": "Japanese"}, {"alias": "noodles", "title": "Noodles"}], "rating": 4.5, "coordinates": {"latitude": 40.7264988089246, "longitude": -73.9866526052356}, "transactions": ["pickup", "delivery"], "price": "$$", "location": {"address1": "342 E 6th St", "address2": "", "address3": "", "city": "New York", "zip_code": "10003", "country": "US", "state": "NY", "display_address": ["342 E 6th St", "New York, NY 10003"]}, "phone": "+12122281324", "display_phone": "(212) 228-1324", "distance": 2428.0392489129867}, {"id": "7OMGEtFWT6sdd9TVuoGqJQ", "alias": "okonomi-brooklyn", "name": "Okonomi", "image_url": "https://s3-media3.fl.yelpcdn.com/bphoto/RMSBnhoB5aHc-3CUSwULgg/o.jpg", "is_closed": false, "url": "https://www.yelp.com/biz/okonomi-brooklyn?adjust_creative=a13dN0CY8XDTpMhWiRdWkw&utm_campaign=yelp_api_v3&utm_medium=api_v3_business_search&utm_source=a13dN0CY8XDTpMhWiRdWkw", "review_count": 466, "categories": [{"alias": "japanese", "title": "Japanese"}, {"alias": "seafood", "title": "Seafood"}], "rating": 4.5, "coordinates": {"latitude": 40.712622, "longitude": -73.9487843}, "transactions": ["pickup", "delivery"], "price": "$$", "location": {"address1": "150 Ainslie St", "address2": "", "address3": "", "city": "Brooklyn", "zip_code": "11211", "country": "US", "state": "NY", "display_address": ["150 Ainslie St", "Brooklyn, NY 11211"]}, "phone": "+19292950480", "display_phone": "(929) 295-0480", "distance": 3918.0469578683437}, {"id": "axqp3pGJXnTLgq2QrPyDyQ", "alias": "benemon-new-york", "name": "Benemon", "image_url": "https://s3-media2.fl.yelpcdn.com/bphoto/qYGlL-jKKWmMthi05ae_iA/o.jpg", "is_closed": false, "url": "https://www.yelp.com/biz/benemon-new-york?adjust_creative=a13dN0CY8XDTpMhWiRdWkw&utm_campaign=yelp_api_v3&utm_medium=api_v3_business_search&utm_source=a13dN0CY8XDTpMhWiRdWkw", "review_count": 619, "categories": [{"alias": "japanese", "title": "Japanese"}, {"alias": "comfortfood", "title": "Comfort Food"}, {"alias": "tapasmallplates", "title": "Tapas/Small Plates"}], "rating": 4.5, "coordinates": {"latitude": 40.72551, "longitude": -73.98838}, "transactions": ["pickup", "delivery"], "price": "$$", "location": {"address1": "108 E 4th St", "address2": null, "address3": "", "city": "New York", "zip_code": "10003", "country": "US", "state": "NY", "display_address": ["108 E 4th St", "New York, NY 10003"]}, "phone": "+12126143006", "display_phone": "(212) 614-3006", "distance": 2289.2038585586733}, {"id": "YC-wGlO0oOkEIaCEDZv-ag", "alias": "yakitori-totto-new-york", "name": "Yakitori Totto", "image_url": "https://s3-media2.fl.yelpcdn.com/bphoto/pahS2pdvpTdXRka6CaBFBw/o.jpg", "is_closed": false, "url": "https://www.yelp.com/biz/yakitori-totto-new-york?adjust_creative=a13dN0CY8XDTpMhWiRdWkw&utm_campaign=yelp_api_v3&utm_medium=api_v3_business_search&utm_source=a13dN0CY8XDTpMhWiRdWkw", "review_count": 1351, "categories": [{"alias": "japanese", "title": "Japanese"}], "rating": 4.0, "coordinates": {"latitude": 40.765375, "longitude": -73.983114}, "transactions": ["pickup", "delivery"], "price": "$$$", "location": {"address1": "251 W 55th St", "address2": "Fl 2", "address3": "", "city": "New York", "zip_code": "10019", "country": "US", "state": "NY", "display_address": ["251 W 55th St", "Fl 2", "New York, NY 10019"]}, "phone": "+12122454555", "display_phone": "(212) 245-4555", "distance": 6730.15788085088}, {"id": "klAhw3xLQi9GF1tf_HnS7w", "alias": "izakaya-mew-new-york-3", "name": "Izakaya MEW", "image_url": "https://s3-media2.fl.yelpcdn.com/bphoto/OHIgiBgK1CA9C3ElqoDTZQ/o.jpg", "is_closed": false, "url": "https://www.yelp.com/biz/izakaya-mew-new-york-3?adjust_creative=a13dN0CY8XDTpMhWiRdWkw&utm_campaign=yelp_api_v3&utm_medium=api_v3_business_search&utm_source=a13dN0CY8XDTpMhWiRdWkw", "review_count": 2453, "categories": [{"alias": "tapas", "title": "Tapas Bars"}, {"alias": "sushi", "title": "Sushi Bars"}, {"alias": "izakaya", "title": "Izakaya"}], "rating": 4.0, "coordinates": {"latitude": 40.750148, "longitude": -73.9863203465939}, "transactions": ["pickup", "delivery"], "price": "$$", "location": {"address1": "53 W 35th St", "address2": "", "address3": "", "city": "New York", "zip_code": "10001", "country": "US", "state": "NY", "display_address": ["53 W 35th St", "New York, NY 10001"]}, "phone": "+16463689384", "display_phone": "(646) 368-9384", "distance": 5015.952903788343}, {"id": "eQ4QUGvuHGBzsOrphsVc6A", "alias": "kimura-new-york", "name": "Kimura", "image_url": "https://s3-media4.fl.yelpcdn.com/bphoto/yLXykLYsF63C1EWLXb2foA/o.jpg", "is_closed": false, "url": "https://www.yelp.com/biz/kimura-new-york?adjust_creative=a13dN0CY8XDTpMhWiRdWkw&utm_campaign=yelp_api_v3&utm_medium=api_v3_business_search&utm_source=a13dN0CY8XDTpMhWiRdWkw", "review_count": 127, "categories": [{"alias": "japanese", "title": "Japanese"}, {"alias": "hotpot", "title": "Hot Pot"}], "rating": 4.5, "coordinates": {"latitude": 40.728995, "longitude": -73.988279}, "transactions": ["delivery", "pickup", "restaurant_reservation"], "price": "$$", "location": {"address1": "31 St Marks Pl", "address2": null, "address3": "", "city": "New York", "zip_code": "10003", "country": "US", "state": "NY", "display_address": ["31 St Marks Pl", "New York, NY 10003"]}, "phone": "+12125981188", "display_phone": "(212) 598-1188", "distance": 2672.2971587321304}, {"id": "f48yzy50jQDH7X5xFAluOw", "alias": "tsukimi-new-york", "name": "Tsukimi", "image_url": "https://s3-media1.fl.yelpcdn.com/bphoto/kett5B5aHu9aMaiHWuJJog/o.jpg", "is_closed": false, "url": "https://www.yelp.com/biz/tsukimi-new-york?adjust_creative=a13dN0CY8XDTpMhWiRdWkw&utm_campaign=yelp_api_v3&utm_medium=api_v3_business_search&utm_source=a13dN0CY8XDTpMhWiRdWkw", "review_count": 30, "categories": [{"alias": "japanese", "title": "Japanese"}], "rating": 5.0, "coordinates": {"latitude": 40.72908, "longitude": -73.98541}, "transactions": ["pickup", "delivery"], "location": {"address1": "228 East 10th St", "address2": null, "address3": "", "city": "New York", "zip_code": "10003", "country": "US", "state": "NY", "display_address": ["228 East 10th St", "New York, NY 10003"]}, "phone": "", "display_phone": "", "distance": 2726.004489701829}, {"id": "BPZfuPvSxCfoppU4lPFm0Q", "alias": "domodomo-new-york-new-york-4", "name": "DOMODOMO - New York", "image_url": "https://s3-media1.fl.yelpcdn.com/bphoto/YX89PDM_-aBCL2USyNyhuw/o.jpg", "is_closed": false, "url": "https://www.yelp.com/biz/domodomo-new-york-new-york-4?adjust_creative=a13dN0CY8XDTpMhWiRdWkw&utm_campaign=yelp_api_v3&utm_medium=api_v3_business_search&utm_source=a13dN0CY8XDTpMhWiRdWkw", "review_count": 1256, "categories": [{"alias": "japanese", "title": "Japanese"}, {"alias": "sushi", "title": "Sushi Bars"}], "rating": 4.0, "coordinates": {"latitude": 40.7280299, "longitude": -74.00167}, "transactions": ["delivery"], "price": "$$$", "location": {"address1": "140 W Houston St", "address2": null, "address3": "", "city": "New York", "zip_code": "10012", "country": "US", "state": "NY", "display_address": ["140 W Houston St", "New York, NY 10012"]}, "phone": "+16467070301", "display_phone": "(646) 707-0301", "distance": 2584.2825548983697}, {"id": "VzstANC68PM1BbyOcDXEtw", "alias": "donburiya-new-york-2", "name": "Donburiya", "image_url": "https://s3-media1.fl.yelpcdn.com/bphoto/9GPQ-zsjkgvgJDSjS5j6hw/o.jpg", "is_closed": false, "url": "https://www.yelp.com/biz/donburiya-new-york-2?adjust_creative=a13dN0CY8XDTpMhWiRdWkw&utm_campaign=yelp_api_v3&utm_medium=api_v3_business_search&utm_source=a13dN0CY8XDTpMhWiRdWkw", "review_count": 364, "categories": [{"alias": "japanese", "title": "Japanese"}, {"alias": "seafood", "title": "Seafood"}, {"alias": "desserts", "title": "Desserts"}], "rating": 4.0, "coordinates": {"latitude": 40.76528, "longitude": -73.98326}, "transactions": ["pickup", "delivery"], "price": "$$", "location": {"address1": "253 W 55th St", "address2": "", "address3": "", "city": "New York", "zip_code": "10019", "country": "US", "state": "NY", "display_address": ["253 W 55th St", "New York, NY 10019"]}, "phone": "+12129807909", "display_phone": "(212) 980-7909", "distance": 6724.521667610174}, {"id": "qEe7nIhPfEL6L0-VYhWRrA", "alias": "raku-new-york-6", "name": "Raku", "image_url": "https://s3-media1.fl.yelpcdn.com/bphoto/EQsQlLlKQjziOrGsEblCbQ/o.jpg", "is_closed": false, "url": "https://www.yelp.com/biz/raku-new-york-6?adjust_creative=a13dN0CY8XDTpMhWiRdWkw&utm_campaign=yelp_api_v3&utm_medium=api_v3_business_search&utm_source=a13dN0CY8XDTpMhWiRdWkw", "review_count": 538, "categories": [{"alias": "japanese", "title": "Japanese"}, {"alias": "noodles", "title": "Noodles"}], "rating": 4.5, "coordinates": {"latitude": 40.72728, "longitude": -74.00252}, "transactions": ["pickup", "delivery"], "price": "$$", "location": {"address1": "48 Macdougal St", "address2": null, "address3": "", "city": "New York", "zip_code": "10012", "country": "US", "state": "NY", "display_address": ["48 Macdougal St", "New York, NY 10012"]}, "phone": "+12129894797", "display_phone": "(212) 989-4797", "distance": 2522.2670460297}, {"id": "9QK3vhI04Q8ylqk49C3JcQ", "alias": "rule-of-thirds-brooklyn", "name": "Rule of Thirds", "image_url": "https://s3-media3.fl.yelpcdn.com/bphoto/z3wcWXhTpcFm-yTiQgwekQ/o.jpg", "is_closed": false, "url": "https://www.yelp.com/biz/rule-of-thirds-brooklyn?adjust_creative=a13dN0CY8XDTpMhWiRdWkw&utm_campaign=yelp_api_v3&utm_medium=api_v3_business_search&utm_source=a13dN0CY8XDTpMhWiRdWkw", "review_count": 114, "categories": [{"alias": "breakfast_brunch", "title": "Breakfast & Brunch"}, {"alias": "izakaya", "title": "Izakaya"}, {"alias": "cocktailbars", "title": "Cocktail Bars"}], "rating": 4.0, "coordinates": {"latitude": 40.7246328, "longitude": -73.9551096}, "transactions": ["pickup", "delivery"], "location": {"address1": "171 Banker St", "address2": null, "address3": null, "city": "Brooklyn", "zip_code": "11222", "country": "US", "state": "NY", "display_address": ["171 Banker St", "Brooklyn, NY 11222"]}, "phone": "+13473346684", "display_phone": "(347) 334-6684", "distance": 3944.454297372159}, {"id": "mlm40NxsVJUPnh3LTayaaw", "alias": "kimika-new-york", "name": "Kimika", "image_url": "https://s3-media4.fl.yelpcdn.com/bphoto/N4SCrlJHAWFWw7tUcgV-8g/o.jpg", "is_closed": false, "url": "https://www.yelp.com/biz/kimika-new-york?adjust_creative=a13dN0CY8XDTpMhWiRdWkw&utm_campaign=yelp_api_v3&utm_medium=api_v3_business_search&utm_source=a13dN0CY8XDTpMhWiRdWkw", "review_count": 181, "categories": [{"alias": "japanese", "title": "Japanese"}, {"alias": "italian", "title": "Italian"}], "rating": 4.0, "coordinates": {"latitude": 40.720572, "longitude": -73.995206}, "transactions": ["delivery"], "location": {"address1": "40 Kenmare St", "address2": "", "address3": null, "city": "New York", "zip_code": "10012", "country": "US", "state": "NY", "display_address": ["40 Kenmare St", "New York, NY 10012"]}, "phone": "+12122569280", "display_phone": "(212) 256-9280", "distance": 1681.2655168704623}, {"id": "kesYSgOJW5krU6L8n9qQ4Q", "alias": "ichibantei-new-york", "name": "Ichibantei", "image_url": "https://s3-media2.fl.yelpcdn.com/bphoto/syVfmMRovMpJiPXLs4EUyQ/o.jpg", "is_closed": false, "url": "https://www.yelp.com/biz/ichibantei-new-york?adjust_creative=a13dN0CY8XDTpMhWiRdWkw&utm_campaign=yelp_api_v3&utm_medium=api_v3_business_search&utm_source=a13dN0CY8XDTpMhWiRdWkw", "review_count": 236, "categories": [{"alias": "japanese", "title": "Japanese"}, {"alias": "steak", "title": "Steakhouses"}], "rating": 4.0, "coordinates": {"latitude": 40.73063, "longitude": -73.98275}, "transactions": ["pickup", "delivery"], "price": "$$", "location": {"address1": "401 E 13th St", "address2": "", "address3": "", "city": "New York", "zip_code": "10009", "country": "US", "state": "NY", "display_address": ["401 E 13th St", "New York, NY 10009"]}, "phone": "+16463689755", "display_phone": "(646) 368-9755", "distance": 2962.9231415353574}, {"id": "-J8VuX3wGrYSOBu2G0hMsw", "alias": "katsu-hama-new-york", "name": "Katsu-Hama", "image_url": "https://s3-media1.fl.yelpcdn.com/bphoto/pOcVelVViCscikDfwsRcUQ/o.jpg", "is_closed": false, "url": "https://www.yelp.com/biz/katsu-hama-new-york?adjust_creative=a13dN0CY8XDTpMhWiRdWkw&utm_campaign=yelp_api_v3&utm_medium=api_v3_business_search&utm_source=a13dN0CY8XDTpMhWiRdWkw", "review_count": 1378, "categories": [{"alias": "japanese", "title": "Japanese"}], "rating": 4.0, "coordinates": {"latitude": 40.75638, "longitude": -73.97759}, "transactions": ["delivery", "pickup", "restaurant_reservation"], "price": "$$", "location": {"address1": "11 E 47th St", "address2": "", "address3": "", "city": "New York", "zip_code": "10017", "country": "US", "state": "NY", "display_address": ["11 E 47th St", "New York, NY 10017"]}, "phone": "+12127585909", "display_phone": "(212) 758-5909", "distance": 5841.3064284782295}, {"id": "uXsYr76zioJq7jjOKRwQog", "alias": "shinbashi-72-new-york", "name": "Shinbashi 72", "image_url": "https://s3-media2.fl.yelpcdn.com/bphoto/TEgqCbhdqBLXCT-ZuP5KSQ/o.jpg", "is_closed": false, "url": "https://www.yelp.com/biz/shinbashi-72-new-york?adjust_creative=a13dN0CY8XDTpMhWiRdWkw&utm_campaign=yelp_api_v3&utm_medium=api_v3_business_search&utm_source=a13dN0CY8XDTpMhWiRdWkw", "review_count": 49, "categories": [{"alias": "japanese", "title": "Japanese"}, {"alias": "intlgrocery", "title": "International Grocery"}], "rating": 5.0, "coordinates": {"latitude": 40.778775, "longitude": -73.982884}, "transactions": ["pickup", "delivery"], "location": {"address1": "218 W 72nd St", "address2": null, "address3": null, "city": "New York", "zip_code": "10023", "country": "US", "state": "NY", "display_address": ["218 W 72nd St", "New York, NY 10023"]}, "phone": "+12125107799", "display_phone": "(212) 510-7799", "distance": 8215.225681735958}, {"id": "pNe8ZCkGTe4cXfKdOF7kYQ", "alias": "ise-restaurant-new-york-3", "name": "Ise Restaurant", "image_url": "https://s3-media2.fl.yelpcdn.com/bphoto/S5SGXwZfHG8Esw2x9-CF4A/o.jpg", "is_closed": false, "url": "https://www.yelp.com/biz/ise-restaurant-new-york-3?adjust_creative=a13dN0CY8XDTpMhWiRdWkw&utm_campaign=yelp_api_v3&utm_medium=api_v3_business_search&utm_source=a13dN0CY8XDTpMhWiRdWkw", "review_count": 514, "categories": [{"alias": "japanese", "title": "Japanese"}, {"alias": "sushi", "title": "Sushi Bars"}], "rating": 4.5, "coordinates": {"latitude": 40.7291024, "longitude": -73.9900618}, "transactions": ["delivery", "pickup", "restaurant_reservation"], "price": "$$", "location": {"address1": "63 Cooper Sq", "address2": null, "address3": "", "city": "New York", "zip_code": "10003", "country": "US", "state": "NY", "display_address": ["63 Cooper Sq", "New York, NY 10003"]}, "phone": "+12122284152", "display_phone": "(212) 228-4152", "distance": 2654.657529899308}, {"id": "OLSSJIp8pu5UlugTF7tuHA", "alias": "ootoya-chelsea-new-york", "name": "Ootoya Chelsea", "image_url": "https://s3-media3.fl.yelpcdn.com/bphoto/bBYOWD2DUwWaML3ADlcZ9Q/o.jpg", "is_closed": false, "url": "https://www.yelp.com/biz/ootoya-chelsea-new-york?adjust_creative=a13dN0CY8XDTpMhWiRdWkw&utm_campaign=yelp_api_v3&utm_medium=api_v3_business_search&utm_source=a13dN0CY8XDTpMhWiRdWkw", "review_count": 1428, "categories": [{"alias": "sushi", "title": "Sushi Bars"}, {"alias": "hotpot", "title": "Hot Pot"}, {"alias": "japacurry", "title": "Japanese Curry"}], "rating": 4.0, "coordinates": {"latitude": 40.738721, "longitude": -73.99279}, "transactions": ["delivery", "pickup", "restaurant_reservation"], "price": "$$", "location": {"address1": "8 W 18th St", "address2": "", "address3": "", "city": "New York", "zip_code": "10011", "country": "US", "state": "NY", "display_address": ["8 W 18th St", "New York, NY 10011"]}, "phone": "+12122550018", "display_phone": "(212) 255-0018", "distance": 3705.421593464517}, {"id": "6lUsFj0KCao678o9L7QwUw", "alias": "hatsuhana-sushi-restaurant-new-york", "name": "Hatsuhana Sushi Restaurant", "image_url": "https://s3-media2.fl.yelpcdn.com/bphoto/yqxu_IyzeCxuKgN9M5ayFw/o.jpg", "is_closed": false, "url": "https://www.yelp.com/biz/hatsuhana-sushi-restaurant-new-york?adjust_creative=a13dN0CY8XDTpMhWiRdWkw&utm_campaign=yelp_api_v3&utm_medium=api_v3_business_search&utm_source=a13dN0CY8XDTpMhWiRdWkw", "review_count": 1388, "categories": [{"alias": "japanese", "title": "Japanese"}, {"alias": "sushi", "title": "Sushi Bars"}], "rating": 4.0, "coordinates": {"latitude": 40.75703, "longitude": -73.97692}, "transactions": ["pickup", "delivery"], "price": "$$$", "location": {"address1": "17 E 48th St", "address2": "", "address3": "", "city": "New York", "zip_code": "10017", "country": "US", "state": "NY", "display_address": ["17 E 48th St", "New York, NY 10017"]}, "phone": "+12123553345", "display_phone": "(212) 355-3345", "distance": 5920.049431134322}, {"id": "FYWwW5lcxKzaA98Xgw8bqA", "alias": "hanon-brooklyn", "name": "hanon", "image_url": "https://s3-media3.fl.yelpcdn.com/bphoto/dsL1BEJmicoRiQfRHNJcHQ/o.jpg", "is_closed": false, "url": "https://www.yelp.com/biz/hanon-brooklyn?adjust_creative=a13dN0CY8XDTpMhWiRdWkw&utm_campaign=yelp_api_v3&utm_medium=api_v3_business_search&utm_source=a13dN0CY8XDTpMhWiRdWkw", "review_count": 204, "categories": [{"alias": "japanese", "title": "Japanese"}, {"alias": "noodles", "title": "Noodles"}], "rating": 4.5, "coordinates": {"latitude": 40.7134488, "longitude": -73.9513445}, "transactions": ["pickup", "delivery"], "price": "$$", "location": {"address1": "436 Union Ave", "address2": "", "address3": null, "city": "Brooklyn", "zip_code": "11211", "country": "US", "state": "NY", "display_address": ["436 Union Ave", "Brooklyn, NY 11211"]}, "phone": "+13477991433", "display_phone": "(347) 799-1433", "distance": 3727.886088653943}, {"id": "HFn1sPqKSzvxaMk2n2ZtJw", "alias": "kotobuki-manhattan-new-york", "name": "Kotobuki Manhattan", "image_url": "https://s3-media4.fl.yelpcdn.com/bphoto/lUQa7hPYeNnhb4qq7jI8fw/o.jpg", "is_closed": false, "url": "https://www.yelp.com/biz/kotobuki-manhattan-new-york?adjust_creative=a13dN0CY8XDTpMhWiRdWkw&utm_campaign=yelp_api_v3&utm_medium=api_v3_business_search&utm_source=a13dN0CY8XDTpMhWiRdWkw", "review_count": 650, "categories": [{"alias": "japanese", "title": "Japanese"}, {"alias": "sushi", "title": "Sushi Bars"}, {"alias": "seafood", "title": "Seafood"}], "rating": 4.0, "coordinates": {"latitude": 40.731107, "longitude": -73.98912}, "transactions": ["pickup", "delivery"], "price": "$$", "location": {"address1": "56 3rd Ave", "address2": null, "address3": "", "city": "New York", "zip_code": "10003", "country": "US", "state": "NY", "display_address": ["56 3rd Ave", "New York, NY 10003"]}, "phone": "+12123535088", "display_phone": "(212) 353-5088", "distance": 2886.611027992669}, {"id": "VdAVjghEq_Zl-DDte0mjrw", "alias": "acre-brooklyn", "name": "ACRE", "image_url": "https://s3-media4.fl.yelpcdn.com/bphoto/7KYC_xb8ZZCOrf-SVR1Nbw/o.jpg", "is_closed": false, "url": "https://www.yelp.com/biz/acre-brooklyn?adjust_creative=a13dN0CY8XDTpMhWiRdWkw&utm_campaign=yelp_api_v3&utm_medium=api_v3_business_search&utm_source=a13dN0CY8XDTpMhWiRdWkw", "review_count": 14, "categories": [{"alias": "breakfast_brunch", "title": "Breakfast & Brunch"}, {"alias": "japanese", "title": "Japanese"}, {"alias": "coffee", "title": "Coffee & Tea"}], "rating": 4.5, "coordinates": {"latitude": 40.72633, "longitude": -73.95471}, "transactions": ["pickup", "delivery"], "location": {"address1": "64 Meserole Ave", "address2": null, "address3": "", "city": "Brooklyn", "zip_code": "11222", "country": "US", "state": "NY", "display_address": ["64 Meserole Ave", "Brooklyn, NY 11222"]}, "phone": "+17189549074", "display_phone": "(718) 954-9074", "distance": 4062.4881140396897}, {"id": "7iY35991NhQ1AShJZCNZgA", "alias": "sakagura-new-york", "name": "Sakagura", "image_url": "https://s3-media4.fl.yelpcdn.com/bphoto/UTNso2U3VAiTXdDV98Jbzw/o.jpg", "is_closed": false, "url": "https://www.yelp.com/biz/sakagura-new-york?adjust_creative=a13dN0CY8XDTpMhWiRdWkw&utm_campaign=yelp_api_v3&utm_medium=api_v3_business_search&utm_source=a13dN0CY8XDTpMhWiRdWkw", "review_count": 1783, "categories": [{"alias": "japanese", "title": "Japanese"}], "rating": 4.0, "coordinates": {"latitude": 40.7516467024541, "longitude": -73.9729489318165}, "transactions": ["delivery"], "price": "$$$", "location": {"address1": "211 E 43rd St", "address2": "", "address3": "", "city": "New York", "zip_code": "10017", "country": "US", "state": "NY", "display_address": ["211 E 43rd St", "New York, NY 10017"]}, "phone": "+12129537253", "display_phone": "(212) 953-7253", "distance": 5443.138436306642}, {"id": "KrJ6m_TkxBAPPSNH-G7rvQ", "alias": "u-gu-brooklyn-4", "name": "U-gu", "image_url": "https://s3-media1.fl.yelpcdn.com/bphoto/RItjMW2Bdyhj7JuymhpMPA/o.jpg", "is_closed": false, "url": "https://www.yelp.com/biz/u-gu-brooklyn-4?adjust_creative=a13dN0CY8XDTpMhWiRdWkw&utm_campaign=yelp_api_v3&utm_medium=api_v3_business_search&utm_source=a13dN0CY8XDTpMhWiRdWkw", "review_count": 150, "categories": [{"alias": "sushi", "title": "Sushi Bars"}, {"alias": "japanese", "title": "Japanese"}], "rating": 4.5, "coordinates": {"latitude": 40.69393, "longitude": -73.96284}, "transactions": ["pickup", "delivery"], "price": "$$", "location": {"address1": "541 Myrtle Ave", "address2": "Ste B", "address3": null, "city": "Brooklyn", "zip_code": "11205", "country": "US", "state": "NY", "display_address": ["541 Myrtle Ave", "Ste B", "Brooklyn, NY 11205"]}, "phone": "+17188570222", "display_phone": "(718) 857-0222", "distance": 2946.825651568673}, {"id": "bokNBgAa9rmMMO8dkZVR1w", "alias": "rice-and-miso-brooklyn", "name": "Rice & Miso", "image_url": "https://s3-media4.fl.yelpcdn.com/bphoto/tVIA3LJJJRVJxFIcQYOljQ/o.jpg", "is_closed": false, "url": "https://www.yelp.com/biz/rice-and-miso-brooklyn?adjust_creative=a13dN0CY8XDTpMhWiRdWkw&utm_campaign=yelp_api_v3&utm_medium=api_v3_business_search&utm_source=a13dN0CY8XDTpMhWiRdWkw", "review_count": 83, "categories": [{"alias": "japanese", "title": "Japanese"}], "rating": 4.5, "coordinates": {"latitude": 40.6845436245203, "longitude": -73.9837776124477}, "transactions": ["pickup", "delivery"], "price": "$$", "location": {"address1": "134 Nevins St", "address2": "", "address3": null, "city": "Brooklyn", "zip_code": "11217", "country": "US", "state": "NY", "display_address": ["134 Nevins St", "Brooklyn, NY 11217"]}, "phone": "+19292793488", "display_phone": "(929) 279-3488", "distance": 2487.455225969594}, {"id": "aRnqeB3ANO_HKETtyL7rlA", "alias": "yakitori-tatsu-brooklyn", "name": "Yakitori Tatsu", "image_url": "https://s3-media3.fl.yelpcdn.com/bphoto/hXkASsnkTSFi9irRNP1oHQ/o.jpg", "is_closed": false, "url": "https://www.yelp.com/biz/yakitori-tatsu-brooklyn?adjust_creative=a13dN0CY8XDTpMhWiRdWkw&utm_campaign=yelp_api_v3&utm_medium=api_v3_business_search&utm_source=a13dN0CY8XDTpMhWiRdWkw", "review_count": 8, "categories": [{"alias": "japanese", "title": "Japanese"}, {"alias": "foodstands", "title": "Food Stands"}], "rating": 4.0, "coordinates": {"latitude": 40.7205331761803, "longitude": -73.9618723466992}, "transactions": ["pickup", "delivery"], "location": {"address1": "90 Kent Ave", "address2": "", "address3": null, "city": "Brooklyn", "zip_code": "11249", "country": "US", "state": "NY", "display_address": ["90 Kent Ave", "Brooklyn, NY 11249"]}, "phone": "", "display_phone": "", "distance": 3206.5138777673296}, {"id": "diz6_4TVSP6EdWEZCZ0Acg", "alias": "kaoru-new-york", "name": "Kaoru", "image_url": "https://s3-media3.fl.yelpcdn.com/bphoto/2N5uZFepOyyo0-BycQHPLw/o.jpg", "is_closed": false, "url": "https://www.yelp.com/biz/kaoru-new-york?adjust_creative=a13dN0CY8XDTpMhWiRdWkw&utm_campaign=yelp_api_v3&utm_medium=api_v3_business_search&utm_source=a13dN0CY8XDTpMhWiRdWkw", "review_count": 405, "categories": [{"alias": "japanese", "title": "Japanese"}], "rating": 4.5, "coordinates": {"latitude": 40.75202, "longitude": -73.96977}, "transactions": ["pickup", "delivery"], "price": "$$", "location": {"address1": "306 E 46th St", "address2": "", "address3": "", "city": "New York", "zip_code": "10017", "country": "US", "state": "NY", "display_address": ["306 E 46th St", "New York, NY 10017"]}, "phone": "+12128670874", "display_phone": "(212) 867-0874", "distance": 5572.160826301359}, {"id": "kN3rkbjvqkY62CDRYUVz4g", "alias": "yopparai-new-york", "name": "Yopparai", "image_url": "https://s3-media3.fl.yelpcdn.com/bphoto/8DN014rsW2ZbQ01SOTCU8Q/o.jpg", "is_closed": false, "url": "https://www.yelp.com/biz/yopparai-new-york?adjust_creative=a13dN0CY8XDTpMhWiRdWkw&utm_campaign=yelp_api_v3&utm_medium=api_v3_business_search&utm_source=a13dN0CY8XDTpMhWiRdWkw", "review_count": 238, "categories": [{"alias": "izakaya", "title": "Izakaya"}], "rating": 4.5, "coordinates": {"latitude": 40.71976194368783, "longitude": -73.98497117259807}, "transactions": ["pickup", "delivery"], "price": "$$$", "location": {"address1": "49 Clinton St", "address2": "Ground Floor", "address3": "", "city": "New York", "zip_code": "10002", "country": "US", "state": "NY", "display_address": ["49 Clinton St", "Ground Floor", "New York, NY 10002"]}, "phone": "+12127777253", "display_phone": "(212) 777-7253", "distance": 1775.3162440008136}, {"id": "i8ejDDR4COtukAAA1Ls5fw", "alias": "soba-ya-new-york", "name": "Soba-ya", "image_url": "https://s3-media4.fl.yelpcdn.com/bphoto/xGWd2_qlV4fejCuJkJIAVg/o.jpg", "is_closed": false, "url": "https://www.yelp.com/biz/soba-ya-new-york?adjust_creative=a13dN0CY8XDTpMhWiRdWkw&utm_campaign=yelp_api_v3&utm_medium=api_v3_business_search&utm_source=a13dN0CY8XDTpMhWiRdWkw", "review_count": 1484, "categories": [{"alias": "japanese", "title": "Japanese"}, {"alias": "noodles", "title": "Noodles"}], "rating": 4.0, "coordinates": {"latitude": 40.72965, "longitude": -73.9878899}, "transactions": ["pickup", "delivery"], "price": "$$", "location": {"address1": "229 E 9th St", "address2": "", "address3": "", "city": "New York", "zip_code": "10003", "country": "US", "state": "NY", "display_address": ["229 E 9th St", "New York, NY 10003"]}, "phone": "+12125336966", "display_phone": "(212) 533-6966", "distance": 2744.4836849113926}, {"id": "n1xpGOPa7XRq4or7QLjzHw", "alias": "dokodemo-new-york", "name": "DokoDemo", "image_url": "https://s3-media4.fl.yelpcdn.com/bphoto/X5MbSP7oN9DGK7bdGeJ6OA/o.jpg", "is_closed": false, "url": "https://www.yelp.com/biz/dokodemo-new-york?adjust_creative=a13dN0CY8XDTpMhWiRdWkw&utm_campaign=yelp_api_v3&utm_medium=api_v3_business_search&utm_source=a13dN0CY8XDTpMhWiRdWkw", "review_count": 337, "categories": [{"alias": "teppanyaki", "title": "Teppanyaki"}, {"alias": "ramen", "title": "Ramen"}, {"alias": "hotdogs", "title": "Fast Food"}], "rating": 4.5, "coordinates": {"latitude": 40.72638, "longitude": -73.98964}, "transactions": ["pickup", "delivery"], "price": "$", "location": {"address1": "89 E 4th St", "address2": null, "address3": "", "city": "New York", "zip_code": "10003", "country": "US", "state": "NY", "display_address": ["89 E 4th St", "New York, NY 10003"]}, "phone": "+19172615228", "display_phone": "(917) 261-5228", "distance": 2361.837949856619}, {"id": "pGYovGGnxm0tMmkiQJPygA", "alias": "ume-williamsburg-brooklyn", "name": "Ume Williamsburg", "image_url": "https://s3-media1.fl.yelpcdn.com/bphoto/Xf4YxwWndOMp-5Ho_iJ6tg/o.jpg", "is_closed": false, "url": "https://www.yelp.com/biz/ume-williamsburg-brooklyn?adjust_creative=a13dN0CY8XDTpMhWiRdWkw&utm_campaign=yelp_api_v3&utm_medium=api_v3_business_search&utm_source=a13dN0CY8XDTpMhWiRdWkw", "review_count": 263, "categories": [{"alias": "sushi", "title": "Sushi Bars"}], "rating": 4.0, "coordinates": {"latitude": 40.71657, "longitude": -73.96559}, "transactions": ["delivery"], "price": "$$$$", "location": {"address1": "237 Kent Ave", "address2": null, "address3": "", "city": "Brooklyn", "zip_code": "11249", "country": "US", "state": "NY", "display_address": ["237 Kent Ave", "Brooklyn, NY 11249"]}, "phone": "+19294203253", "display_phone": "(929) 420-3253", "distance": 2724.4228536190876}, {"id": "6FZf17rNThWKoF4EU18wnw", "alias": "yakiniku-futago-new-york", "name": "Yakiniku Futago", "image_url": "https://s3-media3.fl.yelpcdn.com/bphoto/LcZBEtzW6oGEucJuAUOsuQ/o.jpg", "is_closed": false, "url": "https://www.yelp.com/biz/yakiniku-futago-new-york?adjust_creative=a13dN0CY8XDTpMhWiRdWkw&utm_campaign=yelp_api_v3&utm_medium=api_v3_business_search&utm_source=a13dN0CY8XDTpMhWiRdWkw", "review_count": 391, "categories": [{"alias": "japanese", "title": "Japanese"}, {"alias": "bbq", "title": "Barbeque"}, {"alias": "steak", "title": "Steakhouses"}], "rating": 4.5, "coordinates": {"latitude": 40.738851870947, "longitude": -73.9941236398979}, "transactions": ["pickup", "delivery"], "price": "$$$$", "location": {"address1": "37 W 17th St", "address2": "", "address3": "", "city": "New York", "zip_code": "10011", "country": "US", "state": "NY", "display_address": ["37 W 17th St", "New York, NY 10011"]}, "phone": "+12126200225", "display_phone": "(212) 620-0225", "distance": 3714.713004612417}, {"id": "qm1J_dPA5IHij1oAnoZwHw", "alias": "nonono-new-york-6", "name": "nonono", "image_url": "https://s3-media1.fl.yelpcdn.com/bphoto/uj6OfjZrgmqGYyHtmn3AAA/o.jpg", "is_closed": false, "url": "https://www.yelp.com/biz/nonono-new-york-6?adjust_creative=a13dN0CY8XDTpMhWiRdWkw&utm_campaign=yelp_api_v3&utm_medium=api_v3_business_search&utm_source=a13dN0CY8XDTpMhWiRdWkw", "review_count": 891, "categories": [{"alias": "tapasmallplates", "title": "Tapas/Small Plates"}, {"alias": "izakaya", "title": "Izakaya"}, {"alias": "ramen", "title": "Ramen"}], "rating": 4.0, "coordinates": {"latitude": 40.74545, "longitude": -73.98499}, "transactions": ["pickup", "delivery"], "price": "$$$", "location": {"address1": "118 Madison Ave", "address2": "", "address3": "", "city": "New York", "zip_code": "10016", "country": "US", "state": "NY", "display_address": ["118 Madison Ave", "New York, NY 10016"]}, "phone": "+16467073227", "display_phone": "(646) 707-3227", "distance": 4515.897681612123}, {"id": "ax4INkzwL__-d_kGJfcA-w", "alias": "kaikagetsu-nyc-new-york-2", "name": "Kaikagetsu NYC", "image_url": "https://s3-media3.fl.yelpcdn.com/bphoto/vtl3gL8XoiPNV-MwPvEuVQ/o.jpg", "is_closed": false, "url": "https://www.yelp.com/biz/kaikagetsu-nyc-new-york-2?adjust_creative=a13dN0CY8XDTpMhWiRdWkw&utm_campaign=yelp_api_v3&utm_medium=api_v3_business_search&utm_source=a13dN0CY8XDTpMhWiRdWkw", "review_count": 104, "categories": [{"alias": "japanese", "title": "Japanese"}], "rating": 4.5, "coordinates": {"latitude": 40.72104, "longitude": -73.98848}, "transactions": ["delivery", "restaurant_reservation"], "price": "$$$$", "location": {"address1": "162 Orchard St", "address2": "", "address3": null, "city": "New York", "zip_code": "10002", "country": "US", "state": "NY", "display_address": ["162 Orchard St", "New York, NY 10002"]}, "phone": "+16465903900", "display_phone": "(646) 590-3900", "distance": 1800.6650070425846}, {"id": "xrZWbxETIF8qj6h4uvhJrQ", "alias": "j-spec-new-york", "name": "J-Spec", "image_url": "https://s3-media3.fl.yelpcdn.com/bphoto/T-2fxrDhJlqT9lGSm9n-Fg/o.jpg", "is_closed": false, "url": "https://www.yelp.com/biz/j-spec-new-york?adjust_creative=a13dN0CY8XDTpMhWiRdWkw&utm_campaign=yelp_api_v3&utm_medium=api_v3_business_search&utm_source=a13dN0CY8XDTpMhWiRdWkw", "review_count": 84, "categories": [{"alias": "japanese", "title": "Japanese"}], "rating": 4.0, "coordinates": {"latitude": 40.72699, "longitude": -73.98922}, "transactions": ["pickup", "delivery"], "location": {"address1": "239 E 5th St", "address2": null, "address3": "", "city": "New York", "zip_code": "10003", "country": "US", "state": "NY", "display_address": ["239 E 5th St", "New York, NY 10003"]}, "phone": "+12122870107", "display_phone": "(212) 287-0107", "distance": 2438.0326883939874}, {"id": "ocnHpILS80DHL--34L8xpw", "alias": "sushi-noz-new-york", "name": "Sushi Noz", "image_url": "https://s3-media4.fl.yelpcdn.com/bphoto/4txjf8pzb0iqah6yjD8jdQ/o.jpg", "is_closed": false, "url": "https://www.yelp.com/biz/sushi-noz-new-york?adjust_creative=a13dN0CY8XDTpMhWiRdWkw&utm_campaign=yelp_api_v3&utm_medium=api_v3_business_search&utm_source=a13dN0CY8XDTpMhWiRdWkw", "review_count": 139, "categories": [{"alias": "sushi", "title": "Sushi Bars"}, {"alias": "japanese", "title": "Japanese"}, {"alias": "seafood", "title": "Seafood"}], "rating": 4.5, "coordinates": {"latitude": 40.77385, "longitude": -73.95813}, "transactions": ["pickup", "delivery"], "price": "$$$$", "location": {"address1": "181 E 78th St", "address2": "", "address3": null, "city": "New York", "zip_code": "10075", "country": "US", "state": "NY", "display_address": ["181 E 78th St", "New York, NY 10075"]}, "phone": "+19173381792", "display_phone": "(917) 338-1792", "distance": 8197.706767509848}, {"id": "P_UREWCQxEYVbBa-KW_Wew", "alias": "en-japanese-brasserie-new-york", "name": "EN Japanese Brasserie", "image_url": "https://s3-media2.fl.yelpcdn.com/bphoto/59UYR8bkVNviIfD6GQDLLw/o.jpg", "is_closed": false, "url": "https://www.yelp.com/biz/en-japanese-brasserie-new-york?adjust_creative=a13dN0CY8XDTpMhWiRdWkw&utm_campaign=yelp_api_v3&utm_medium=api_v3_business_search&utm_source=a13dN0CY8XDTpMhWiRdWkw", "review_count": 1283, "categories": [{"alias": "japanese", "title": "Japanese"}, {"alias": "diners", "title": "Diners"}, {"alias": "bars", "title": "Bars"}], "rating": 4.0, "coordinates": {"latitude": 40.7306, "longitude": -74.00698}, "transactions": ["pickup", "delivery"], "price": "$$$", "location": {"address1": "435 Hudson St", "address2": "", "address3": "", "city": "New York", "zip_code": "10014", "country": "US", "state": "NY", "display_address": ["435 Hudson St", "New York, NY 10014"]}, "phone": "+12126479196", "display_phone": "(212) 647-9196", "distance": 3003.352598143026}, {"id": "BlzlywklvYdek5uk_NCX9g", "alias": "suzume-brooklyn", "name": "Suzume", "image_url": "https://s3-media2.fl.yelpcdn.com/bphoto/1ti7szssQZHXebWPrUNwqA/o.jpg", "is_closed": false, "url": "https://www.yelp.com/biz/suzume-brooklyn?adjust_creative=a13dN0CY8XDTpMhWiRdWkw&utm_campaign=yelp_api_v3&utm_medium=api_v3_business_search&utm_source=a13dN0CY8XDTpMhWiRdWkw", "review_count": 326, "categories": [{"alias": "filipino", "title": "Filipino"}, {"alias": "ramen", "title": "Ramen"}, {"alias": "hawaiian", "title": "Hawaiian"}], "rating": 4.0, "coordinates": {"latitude": 40.7131652, "longitude": -73.9494479}, "transactions": ["delivery", "pickup", "restaurant_reservation"], "price": "$$", "location": {"address1": "545 Lorimer St", "address2": "", "address3": "", "city": "Brooklyn", "zip_code": "11211", "country": "US", "state": "NY", "display_address": ["545 Lorimer St", "Brooklyn, NY 11211"]}, "phone": "+17184860200", "display_phone": "(718) 486-0200", "distance": 3876.21491035216}, {"id": "Lz_9RXFKmOaSA4IpgV6NlA", "alias": "karazishi-botan-brooklyn", "name": "Karazishi Botan", "image_url": "https://s3-media1.fl.yelpcdn.com/bphoto/6LmRjLlvex87GKomJ2DVCw/o.jpg", "is_closed": false, "url": "https://www.yelp.com/biz/karazishi-botan-brooklyn?adjust_creative=a13dN0CY8XDTpMhWiRdWkw&utm_campaign=yelp_api_v3&utm_medium=api_v3_business_search&utm_source=a13dN0CY8XDTpMhWiRdWkw", "review_count": 61, "categories": [{"alias": "ramen", "title": "Ramen"}], "rating": 4.5, "coordinates": {"latitude": 40.68312, "longitude": -73.99278}, "transactions": ["pickup", "delivery"], "price": "$$", "location": {"address1": "255 Smith St", "address2": "", "address3": null, "city": "Brooklyn", "zip_code": "11231", "country": "US", "state": "NY", "display_address": ["255 Smith St", "Brooklyn, NY 11231"]}, "phone": "+13477631155", "display_phone": "(347) 763-1155", "distance": 2484.443222181057}, {"id": "pqqhHTz_ZpApsaWGa_zMTA", "alias": "douska-new-york", "name": "Douska", "image_url": "https://s3-media1.fl.yelpcdn.com/bphoto/mVPExHYYyAIM4ts62LwRlg/o.jpg", "is_closed": false, "url": "https://www.yelp.com/biz/douska-new-york?adjust_creative=a13dN0CY8XDTpMhWiRdWkw&utm_campaign=yelp_api_v3&utm_medium=api_v3_business_search&utm_source=a13dN0CY8XDTpMhWiRdWkw", "review_count": 127, "categories": [{"alias": "sushi", "title": "Sushi Bars"}, {"alias": "japanese", "title": "Japanese"}], "rating": 4.5, "coordinates": {"latitude": 40.7191369, "longitude": -73.9908998}, "transactions": [], "location": {"address1": "63 Delancey St", "address2": "", "address3": null, "city": "New York", "zip_code": "10002", "country": "US", "state": "NY", "display_address": ["63 Delancey St", "New York, NY 10002"]}, "phone": "+16466570908", "display_phone": "(646) 657-0908", "distance": 1544.6963982812902}, {"id": "RYKGs45OjF-vlb2Ds2Jb_g", "alias": "izakaya-juraku-new-york-2", "name": "Izakaya Juraku", "image_url": "https://s3-media1.fl.yelpcdn.com/bphoto/xlRw20ojLF480_VF8GNrZg/o.jpg", "is_closed": false, "url": "https://www.yelp.com/biz/izakaya-juraku-new-york-2?adjust_creative=a13dN0CY8XDTpMhWiRdWkw&utm_campaign=yelp_api_v3&utm_medium=api_v3_business_search&utm_source=a13dN0CY8XDTpMhWiRdWkw", "review_count": 140, "categories": [{"alias": "bars", "title": "Bars"}, {"alias": "izakaya", "title": "Izakaya"}, {"alias": "ramen", "title": "Ramen"}], "rating": 4.5, "coordinates": {"latitude": 40.7196796287355, "longitude": -73.9887088537216}, "transactions": ["pickup", "delivery"], "price": "$$", "location": {"address1": "121 Ludlow St", "address2": "", "address3": null, "city": "New York", "zip_code": "10002", "country": "US", "state": "NY", "display_address": ["121 Ludlow St", "New York, NY 10002"]}, "phone": "+12124770100", "display_phone": "(212) 477-0100", "distance": 1651.3305168112172}, {"id": "Brs_MJhAXe60iMnlpeqkKA", "alias": "yakiniku-west-new-york", "name": "Yakiniku West", "image_url": "https://s3-media1.fl.yelpcdn.com/bphoto/1AsTl9luGyz1nhsGnujivw/o.jpg", "is_closed": false, "url": "https://www.yelp.com/biz/yakiniku-west-new-york?adjust_creative=a13dN0CY8XDTpMhWiRdWkw&utm_campaign=yelp_api_v3&utm_medium=api_v3_business_search&utm_source=a13dN0CY8XDTpMhWiRdWkw", "review_count": 705, "categories": [{"alias": "japanese", "title": "Japanese"}, {"alias": "bbq", "title": "Barbeque"}], "rating": 4.0, "coordinates": {"latitude": 40.72965099486931, "longitude": -73.98853995116153}, "transactions": ["pickup", "delivery"], "price": "$$", "location": {"address1": "218 E 9th St", "address2": "", "address3": "", "city": "New York", "zip_code": "10003", "country": "US", "state": "NY", "display_address": ["218 E 9th St", "New York, NY 10003"]}, "phone": "+16465968027", "display_phone": "(646) 596-8027", "distance": 2734.9210051199757}, {"id": "Ww3aAPf0sA5ygAXu2qV1ZQ", "alias": "taiki-brooklyn", "name": "Taiki", "image_url": "https://s3-media3.fl.yelpcdn.com/bphoto/VYFTgiaT2aPwweuoadt6-Q/o.jpg", "is_closed": false, "url": "https://www.yelp.com/biz/taiki-brooklyn?adjust_creative=a13dN0CY8XDTpMhWiRdWkw&utm_campaign=yelp_api_v3&utm_medium=api_v3_business_search&utm_source=a13dN0CY8XDTpMhWiRdWkw", "review_count": 84, "categories": [{"alias": "sushi", "title": "Sushi Bars"}, {"alias": "japanese", "title": "Japanese"}, {"alias": "seafood", "title": "Seafood"}], "rating": 4.5, "coordinates": {"latitude": 40.6845433545275, "longitude": -73.9837775425761}, "transactions": ["pickup", "delivery"], "price": "$$$", "location": {"address1": "134 Nevins St", "address2": null, "address3": "", "city": "Brooklyn", "zip_code": "11217", "country": "US", "state": "NY", "display_address": ["134 Nevins St", "Brooklyn, NY 11217"]}, "phone": "+19293564826", "display_phone": "(929) 356-4826", "distance": 2481.156681334874}, {"id": "X73hpslpgeJNhVohYIUzfQ", "alias": "dashi-brooklyn-brooklyn-3", "name": "Dashi - Brooklyn", "image_url": "https://s3-media3.fl.yelpcdn.com/bphoto/m0W88G9NHouSFhBp_GB_fw/o.jpg", "is_closed": false, "url": "https://www.yelp.com/biz/dashi-brooklyn-brooklyn-3?adjust_creative=a13dN0CY8XDTpMhWiRdWkw&utm_campaign=yelp_api_v3&utm_medium=api_v3_business_search&utm_source=a13dN0CY8XDTpMhWiRdWkw", "review_count": 54, "categories": [{"alias": "japanese", "title": "Japanese"}, {"alias": "comfortfood", "title": "Comfort Food"}, {"alias": "coffee", "title": "Coffee & Tea"}], "rating": 4.5, "coordinates": {"latitude": 40.707885, "longitude": -73.929212}, "transactions": ["pickup", "delivery"], "price": "$$", "location": {"address1": "119 Ingraham St", "address2": "Fl 1", "address3": "", "city": "Brooklyn", "zip_code": "11237", "country": "US", "state": "NY", "display_address": ["119 Ingraham St", "Fl 1", "Brooklyn, NY 11237"]}, "phone": "+19292763310", "display_phone": "(929) 276-3310", "distance": 5490.910023270714}, {"id": "ZaJS8EKQNSaQpwpmgN-vVw", "alias": "samurai-mama-brooklyn", "name": "Samurai Mama", "image_url": "https://s3-media1.fl.yelpcdn.com/bphoto/iU4mCy9pszj-Kx3WzcAXQw/o.jpg", "is_closed": false, "url": "https://www.yelp.com/biz/samurai-mama-brooklyn?adjust_creative=a13dN0CY8XDTpMhWiRdWkw&utm_campaign=yelp_api_v3&utm_medium=api_v3_business_search&utm_source=a13dN0CY8XDTpMhWiRdWkw", "review_count": 612, "categories": [{"alias": "japanese", "title": "Japanese"}, {"alias": "noodles", "title": "Noodles"}], "rating": 4.0, "coordinates": {"latitude": 40.7140208838114, "longitude": -73.960325717926}, "transactions": ["pickup", "delivery"], "price": "$$", "location": {"address1": "205 Grand St", "address2": "", "address3": "", "city": "Brooklyn", "zip_code": "11211", "country": "US", "state": "NY", "display_address": ["205 Grand St", "Brooklyn, NY 11211"]}, "phone": "+17185996161", "display_phone": "(718) 599-6161", "distance": 3017.69647092549}, {"id": "icZcEK39HXuL2q08i4EkkQ", "alias": "bessou-new-york", "name": "Bessou", "image_url": "https://s3-media2.fl.yelpcdn.com/bphoto/PD7tgyIwu8gNU56oKn2Oxg/o.jpg", "is_closed": false, "url": "https://www.yelp.com/biz/bessou-new-york?adjust_creative=a13dN0CY8XDTpMhWiRdWkw&utm_campaign=yelp_api_v3&utm_medium=api_v3_business_search&utm_source=a13dN0CY8XDTpMhWiRdWkw", "review_count": 316, "categories": [{"alias": "japanese", "title": "Japanese"}], "rating": 4.0, "coordinates": {"latitude": 40.725502, "longitude": -73.992675}, "transactions": ["pickup", "delivery"], "price": "$$", "location": {"address1": "5 Bleecker St", "address2": "", "address3": null, "city": "New York", "zip_code": "10012", "country": "US", "state": "NY", "display_address": ["5 Bleecker St", "New York, NY 10012"]}, "phone": "+12122288502", "display_phone": "(212) 228-8502", "distance": 2237.328414577862}, {"id": "PTYUAAJbEmvIv4EsyRrcnA", "alias": "momoya-new-york-2", "name": "Momoya", "image_url": "https://s3-media3.fl.yelpcdn.com/bphoto/VuuQaicuoIhdPAOXDfd1OQ/o.jpg", "is_closed": false, "url": "https://www.yelp.com/biz/momoya-new-york-2?adjust_creative=a13dN0CY8XDTpMhWiRdWkw&utm_campaign=yelp_api_v3&utm_medium=api_v3_business_search&utm_source=a13dN0CY8XDTpMhWiRdWkw", "review_count": 480, "categories": [{"alias": "sushi", "title": "Sushi Bars"}, {"alias": "japanese", "title": "Japanese"}], "rating": 4.0, "coordinates": {"latitude": 40.784043, "longitude": -73.977391}, "transactions": ["pickup", "delivery"], "price": "$$$", "location": {"address1": "427 Amsterdam Ave", "address2": "", "address3": "", "city": "New York", "zip_code": "10024", "country": "US", "state": "NY", "display_address": ["427 Amsterdam Ave", "New York, NY 10024"]}, "phone": "+12125800007", "display_phone": "(212) 580-0007", "distance": 8854.939080659266}, {"id": "lxQ-tzFmL1tmUqZUN-CSRQ", "alias": "bozu-brooklyn", "name": "Bozu", "image_url": "https://s3-media3.fl.yelpcdn.com/bphoto/N-BH6kfb9LAYAANMVVSkcw/o.jpg", "is_closed": false, "url": "https://www.yelp.com/biz/bozu-brooklyn?adjust_creative=a13dN0CY8XDTpMhWiRdWkw&utm_campaign=yelp_api_v3&utm_medium=api_v3_business_search&utm_source=a13dN0CY8XDTpMhWiRdWkw", "review_count": 844, "categories": [{"alias": "japanese", "title": "Japanese"}, {"alias": "bars", "title": "Bars"}], "rating": 4.0, "coordinates": {"latitude": 40.7129, "longitude": -73.95749}, "transactions": ["delivery"], "price": "$$", "location": {"address1": "296 Grand St", "address2": "", "address3": "", "city": "Brooklyn", "zip_code": "11211", "country": "US", "state": "NY", "display_address": ["296 Grand St", "Brooklyn, NY 11211"]}, "phone": "+17183847770", "display_phone": "(718) 384-7770", "distance": 3200.7565834137804}, {"id": "NRJq2BNcbjqAyxUB_bw7gw", "alias": "momoya-new-york", "name": "Momoya", "image_url": "https://s3-media2.fl.yelpcdn.com/bphoto/QZg0n_Fz1kjkl5pX1RShnw/o.jpg", "is_closed": false, "url": "https://www.yelp.com/biz/momoya-new-york?adjust_creative=a13dN0CY8XDTpMhWiRdWkw&utm_campaign=yelp_api_v3&utm_medium=api_v3_business_search&utm_source=a13dN0CY8XDTpMhWiRdWkw", "review_count": 710, "categories": [{"alias": "sushi", "title": "Sushi Bars"}, {"alias": "japanese", "title": "Japanese"}, {"alias": "salad", "title": "Salad"}], "rating": 4.0, "coordinates": {"latitude": 40.7426255196333, "longitude": -73.9966481924057}, "transactions": ["pickup", "delivery"], "price": "$$", "location": {"address1": "185 7th Ave", "address2": null, "address3": "", "city": "New York", "zip_code": "10011", "country": "US", "state": "NY", "display_address": ["185 7th Ave", "New York, NY 10011"]}, "phone": "+12129894466", "display_phone": "(212) 989-4466", "distance": 4137.730524078914}, {"id": "a8Lj13uc3Hhyjm0eYL90sw", "alias": "sushi-on-me-jackson-heights", "name": "Sushi On Me", "image_url": "https://s3-media3.fl.yelpcdn.com/bphoto/fBOFC0jM6xj_sJmFRPH9CQ/o.jpg", "is_closed": false, "url": "https://www.yelp.com/biz/sushi-on-me-jackson-heights?adjust_creative=a13dN0CY8XDTpMhWiRdWkw&utm_campaign=yelp_api_v3&utm_medium=api_v3_business_search&utm_source=a13dN0CY8XDTpMhWiRdWkw", "review_count": 92, "categories": [{"alias": "japanese", "title": "Japanese"}, {"alias": "sushi", "title": "Sushi Bars"}], "rating": 5.0, "coordinates": {"latitude": 40.746444, "longitude": -73.893947}, "transactions": [], "price": "$$$$", "location": {"address1": "71-26 Roosevelt Ave", "address2": null, "address3": "", "city": "Jackson Heights", "zip_code": "11372", "country": "US", "state": "NY", "display_address": ["71-26 Roosevelt Ave", "Jackson Heights, NY 11372"]}, "phone": "+19292685691", "display_phone": "(929) 268-5691", "distance": 9606.338880318372}, {"id": "wcwftlB-61XG4ymGTR61aw", "alias": "sakamai-new-york", "name": "SakaMai", "image_url": "https://s3-media2.fl.yelpcdn.com/bphoto/KW_Q6i-ru5fe9DQICeqB_Q/o.jpg", "is_closed": false, "url": "https://www.yelp.com/biz/sakamai-new-york?adjust_creative=a13dN0CY8XDTpMhWiRdWkw&utm_campaign=yelp_api_v3&utm_medium=api_v3_business_search&utm_source=a13dN0CY8XDTpMhWiRdWkw", "review_count": 710, "categories": [{"alias": "japanese", "title": "Japanese"}, {"alias": "cocktailbars", "title": "Cocktail Bars"}, {"alias": "seafood", "title": "Seafood"}], "rating": 4.0, "coordinates": {"latitude": 40.7209536656701, "longitude": -73.9881407239426}, "transactions": ["pickup", "delivery"], "price": "$$$", "location": {"address1": "157 Ludlow St", "address2": "", "address3": "", "city": "New York", "zip_code": "10002", "country": "US", "state": "NY", "display_address": ["157 Ludlow St", "New York, NY 10002"]}, "phone": "+16465900684", "display_phone": "(646) 590-0684", "distance": 1800.7758678600844}], "total": 240, "region": {"center": {"longitude": -73.99429321289062, "latitude": 40.70544486444615}}}