{"businesses": [{"id": "fMf4P22m65creknIICuaXA", "alias": "kuun-brooklyn", "name": "Kuun", "image_url": "https://s3-media4.fl.yelpcdn.com/bphoto/VUn1YYHmHeQwc1bgYz__2A/o.jpg", "is_closed": false, "url": "https://www.yelp.com/biz/kuun-brooklyn?adjust_creative=a13dN0CY8XDTpMhWiRdWkw&utm_campaign=yelp_api_v3&utm_medium=api_v3_business_search&utm_source=a13dN0CY8XDTpMhWiRdWkw", "review_count": 106, "categories": [{"alias": "korean", "title": "Korean"}], "rating": 4.5, "coordinates": {"latitude": 40.6884292, "longitude": -73.9831506}, "transactions": ["pickup", "delivery"], "location": {"address1": "290 Livingston St", "address2": "", "address3": null, "city": "Brooklyn", "zip_code": "11217", "country": "US", "state": "NY", "display_address": ["290 Livingston St", "Brooklyn, NY 11217"]}, "phone": "+19179091466", "display_phone": "(917) 909-1466", "distance": 2125.374239024866}, {"id": "fVbUVAiLiGgLA_nxBFxyww", "alias": "thursday-kitchen-new-york", "name": "Thursday Kitchen", "image_url": "https://s3-media4.fl.yelpcdn.com/bphoto/nXO8M-d-XTamNmc0BpXWtA/o.jpg", "is_closed": false, "url": "https://www.yelp.com/biz/thursday-kitchen-new-york?adjust_creative=a13dN0CY8XDTpMhWiRdWkw&utm_campaign=yelp_api_v3&utm_medium=api_v3_business_search&utm_source=a13dN0CY8XDTpMhWiRdWkw", "review_count": 1457, "categories": [{"alias": "korean", "title": "Korean"}, {"alias": "newamerican", "title": "American (New)"}, {"alias": "tapasmallplates", "title": "Tapas/Small Plates"}], "rating": 4.5, "coordinates": {"latitude": 40.7275, "longitude": -73.9838}, "transactions": [], "price": "$$", "location": {"address1": "424 E 9th St", "address2": null, "address3": "", "city": "New York", "zip_code": "10009", "country": "US", "state": "NY", "display_address": ["424 E 9th St", "New York, NY 10009"]}, "phone": "", "display_phone": "", "distance": 2613.42601480514}, {"id": "l0vT-Cw6JBmhhJhCOT8b0Q", "alias": "woori-korean-brooklyn-2", "name": "Woori Korean", "image_url": "https://s3-media4.fl.yelpcdn.com/bphoto/9AtErogvDL7gKhWU9IVImg/o.jpg", "is_closed": false, "url": "https://www.yelp.com/biz/woori-korean-brooklyn-2?adjust_creative=a13dN0CY8XDTpMhWiRdWkw&utm_campaign=yelp_api_v3&utm_medium=api_v3_business_search&utm_source=a13dN0CY8XDTpMhWiRdWkw", "review_count": 29, "categories": [{"alias": "korean", "title": "Korean"}], "rating": 5.0, "coordinates": {"latitude": 40.693085, "longitude": -73.973077}, "transactions": ["pickup", "delivery"], "location": {"address1": "336 Myrtle Ave", "address2": null, "address3": "", "city": "Brooklyn", "zip_code": "11205", "country": "US", "state": "NY", "display_address": ["336 Myrtle Ave", "Brooklyn, NY 11205"]}, "phone": "+15164608606", "display_phone": "(516) 460-8606", "distance": 2254.1229973907984}, {"id": "igcUHNvsKc-s-RtvUmkg2w", "alias": "kook-new-york", "name": "K'OOK", "image_url": "https://s3-media3.fl.yelpcdn.com/bphoto/VcVPE3DeNBszyl6ghCGVKg/o.jpg", "is_closed": false, "url": "https://www.yelp.com/biz/kook-new-york?adjust_creative=a13dN0CY8XDTpMhWiRdWkw&utm_campaign=yelp_api_v3&utm_medium=api_v3_business_search&utm_source=a13dN0CY8XDTpMhWiRdWkw", "review_count": 464, "categories": [{"alias": "korean", "title": "Korean"}], "rating": 4.0, "coordinates": {"latitude": 40.72682, "longitude": -73.98738}, "transactions": ["pickup", "delivery"], "price": "$$", "location": {"address1": "324 E 6th St", "address2": null, "address3": "", "city": "New York", "zip_code": "10003", "country": "US", "state": "NY", "display_address": ["324 E 6th St", "New York, NY 10003"]}, "phone": "+12122540600", "display_phone": "(212) 254-0600", "distance": 2440.1830569436215}, {"id": "EKkHfSYTm266-ZBve3SdgA", "alias": "yoon-haeundae-galbi-new-york-2", "name": "Yoon Haeundae Galbi", "image_url": "https://s3-media1.fl.yelpcdn.com/bphoto/M9i5rqze0t9rfRosu_-gKQ/o.jpg", "is_closed": false, "url": "https://www.yelp.com/biz/yoon-haeundae-galbi-new-york-2?adjust_creative=a13dN0CY8XDTpMhWiRdWkw&utm_campaign=yelp_api_v3&utm_medium=api_v3_business_search&utm_source=a13dN0CY8XDTpMhWiRdWkw", "review_count": 527, "categories": [{"alias": "korean", "title": "Korean"}, {"alias": "bbq", "title": "Barbeque"}, {"alias": "steak", "title": "Steakhouses"}], "rating": 4.5, "coordinates": {"latitude": 40.74996750318778, "longitude": -73.98443095513923}, "transactions": ["pickup", "delivery", "restaurant_reservation"], "price": "$$$", "location": {"address1": "8 W 36th St", "address2": "", "address3": null, "city": "New York", "zip_code": "10018", "country": "US", "state": "NY", "display_address": ["8 W 36th St", "New York, NY 10018"]}, "phone": "+12126918078", "display_phone": "(212) 691-8078", "distance": 5019.953551619518}, {"id": "xZ96vaoL-cQjfotmUKtjJQ", "alias": "barn-joo-35-new-york", "name": "Barn Joo 35", "image_url": "https://s3-media2.fl.yelpcdn.com/bphoto/h4zKOxpPuJ958w8S43Wu4A/o.jpg", "is_closed": false, "url": "https://www.yelp.com/biz/barn-joo-35-new-york?adjust_creative=a13dN0CY8XDTpMhWiRdWkw&utm_campaign=yelp_api_v3&utm_medium=api_v3_business_search&utm_source=a13dN0CY8XDTpMhWiRdWkw", "review_count": 2109, "categories": [{"alias": "korean", "title": "Korean"}, {"alias": "gastropubs", "title": "Gastropubs"}, {"alias": "tapasmallplates", "title": "Tapas/Small Plates"}], "rating": 4.0, "coordinates": {"latitude": 40.74964, "longitude": -73.98582}, "transactions": ["pickup", "delivery"], "price": "$$", "location": {"address1": "34 W 35th St", "address2": "", "address3": "", "city": "New York", "zip_code": "10001", "country": "US", "state": "NY", "display_address": ["34 W 35th St", "New York, NY 10001"]}, "phone": "+12125644430", "display_phone": "(212) 564-4430", "distance": 4968.473297353009}, {"id": "FsuJ7VC5vxX3wcLhFrb97Q", "alias": "oiji-new-york", "name": "Oiji", "image_url": "https://s3-media2.fl.yelpcdn.com/bphoto/0FC3-fac9X4BP2oAKdTVow/o.jpg", "is_closed": false, "url": "https://www.yelp.com/biz/oiji-new-york?adjust_creative=a13dN0CY8XDTpMhWiRdWkw&utm_campaign=yelp_api_v3&utm_medium=api_v3_business_search&utm_source=a13dN0CY8XDTpMhWiRdWkw", "review_count": 560, "categories": [{"alias": "korean", "title": "Korean"}], "rating": 4.5, "coordinates": {"latitude": 40.72727, "longitude": -73.98585}, "transactions": ["pickup", "delivery"], "price": "$$$", "location": {"address1": "119 1st Ave", "address2": "", "address3": "", "city": "New York", "zip_code": "10003", "country": "US", "state": "NY", "display_address": ["119 1st Ave", "New York, NY 10003"]}, "phone": "+16467679050", "display_phone": "(646) 767-9050", "distance": 2528.519369329009}, {"id": "qY1o1MhoRyN84RRhUJtvpQ", "alias": "her-name-is-han-new-york-3", "name": "Her Name Is Han", "image_url": "https://s3-media2.fl.yelpcdn.com/bphoto/fwSCdGzJPpe7DuO_LwLPDw/o.jpg", "is_closed": false, "url": "https://www.yelp.com/biz/her-name-is-han-new-york-3?adjust_creative=a13dN0CY8XDTpMhWiRdWkw&utm_campaign=yelp_api_v3&utm_medium=api_v3_business_search&utm_source=a13dN0CY8XDTpMhWiRdWkw", "review_count": 1367, "categories": [{"alias": "korean", "title": "Korean"}, {"alias": "breakfast_brunch", "title": "Breakfast & Brunch"}, {"alias": "cocktailbars", "title": "Cocktail Bars"}], "rating": 4.5, "coordinates": {"latitude": 40.7462615966797, "longitude": -73.984733581543}, "transactions": ["pickup", "delivery"], "price": "$$", "location": {"address1": "17 E 31st St", "address2": "", "address3": "", "city": "New York", "zip_code": "10016", "country": "US", "state": "NY", "display_address": ["17 E 31st St", "New York, NY 10016"]}, "phone": "+12127799990", "display_phone": "(212) 779-9990", "distance": 4610.341632711306}, {"id": "aZ_a78wVWnQnV6BdMwcFVA", "alias": "yubu-new-york", "name": "YUBU", "image_url": "https://s3-media2.fl.yelpcdn.com/bphoto/syfOQmVIHH4RuL1c_sKrXA/o.jpg", "is_closed": false, "url": "https://www.yelp.com/biz/yubu-new-york?adjust_creative=a13dN0CY8XDTpMhWiRdWkw&utm_campaign=yelp_api_v3&utm_medium=api_v3_business_search&utm_source=a13dN0CY8XDTpMhWiRdWkw", "review_count": 87, "categories": [{"alias": "korean", "title": "Korean"}], "rating": 4.5, "coordinates": {"latitude": 40.72702, "longitude": -73.98608}, "transactions": ["pickup", "delivery"], "price": "$", "location": {"address1": "86 E 7th St", "address2": null, "address3": "", "city": "New York", "zip_code": "10003", "country": "US", "state": "NY", "display_address": ["86 E 7th St", "New York, NY 10003"]}, "phone": "+16468910116", "display_phone": "(646) 891-0116", "distance": 2497.0061450077374}, {"id": "VvsZAnEwU4c8Xkyrzx05Nw", "alias": "anytime-new-york", "name": "Anytime", "image_url": "https://s3-media3.fl.yelpcdn.com/bphoto/ZCynTTqe0O1JtxKRozmWHA/o.jpg", "is_closed": false, "url": "https://www.yelp.com/biz/anytime-new-york?adjust_creative=a13dN0CY8XDTpMhWiRdWkw&utm_campaign=yelp_api_v3&utm_medium=api_v3_business_search&utm_source=a13dN0CY8XDTpMhWiRdWkw", "review_count": 1649, "categories": [{"alias": "korean", "title": "Korean"}, {"alias": "newamerican", "title": "American (New)"}, {"alias": "tapasmallplates", "title": "Tapas/Small Plates"}], "rating": 4.5, "coordinates": {"latitude": 40.74776270790539, "longitude": -73.9867793576711}, "transactions": ["pickup", "delivery", "restaurant_reservation"], "price": "$$", "location": {"address1": "23 W 32nd St", "address2": "Fl 3", "address3": "", "city": "New York", "zip_code": "10001", "country": "US", "state": "NY", "display_address": ["23 W 32nd St", "Fl 3", "New York, NY 10001"]}, "phone": "+16466697733", "display_phone": "(646) 669-7733", "distance": 4747.932417457403}, {"id": "xtxcAUvrD4dWHJd0cwvW1A", "alias": "jeju-noodle-bar-new-york", "name": "JeJu Noodle Bar", "image_url": "https://s3-media2.fl.yelpcdn.com/bphoto/grYU8HjlM-6dSTgW27rhAQ/o.jpg", "is_closed": false, "url": "https://www.yelp.com/biz/jeju-noodle-bar-new-york?adjust_creative=a13dN0CY8XDTpMhWiRdWkw&utm_campaign=yelp_api_v3&utm_medium=api_v3_business_search&utm_source=a13dN0CY8XDTpMhWiRdWkw", "review_count": 680, "categories": [{"alias": "korean", "title": "Korean"}, {"alias": "noodles", "title": "Noodles"}, {"alias": "cocktailbars", "title": "Cocktail Bars"}], "rating": 4.5, "coordinates": {"latitude": 40.73304, "longitude": -74.00734}, "transactions": ["delivery"], "price": "$$", "location": {"address1": "679 Greenwich St", "address2": "", "address3": null, "city": "New York", "zip_code": "10014", "country": "US", "state": "NY", "display_address": ["679 Greenwich St", "New York, NY 10014"]}, "phone": "+16466660947", "display_phone": "(646) 666-0947", "distance": 3256.137406146092}, {"id": "0U9uW93o9DUnAP7r-76LVg", "alias": "haenyeo-brooklyn", "name": "Haenyeo", "image_url": "https://s3-media1.fl.yelpcdn.com/bphoto/iI8pj71J8ksMp9P4JgkNcA/o.jpg", "is_closed": false, "url": "https://www.yelp.com/biz/haenyeo-brooklyn?adjust_creative=a13dN0CY8XDTpMhWiRdWkw&utm_campaign=yelp_api_v3&utm_medium=api_v3_business_search&utm_source=a13dN0CY8XDTpMhWiRdWkw", "review_count": 176, "categories": [{"alias": "korean", "title": "Korean"}], "rating": 4.0, "coordinates": {"latitude": 40.67519, "longitude": -73.98116}, "transactions": ["pickup", "delivery"], "location": {"address1": "239 5th Ave", "address2": "", "address3": null, "city": "Brooklyn", "zip_code": "11215", "country": "US", "state": "NY", "display_address": ["239 5th Ave", "Brooklyn, NY 11215"]}, "phone": "+17182132290", "display_phone": "(718) 213-2290", "distance": 3543.010210263082}, {"id": "FizBsTIAJwNrImIG1mPDcg", "alias": "barn-joo-new-york-3", "name": "Barn Joo", "image_url": "https://s3-media2.fl.yelpcdn.com/bphoto/i7ReKaGzUGGXuisJFIV-RA/o.jpg", "is_closed": false, "url": "https://www.yelp.com/biz/barn-joo-new-york-3?adjust_creative=a13dN0CY8XDTpMhWiRdWkw&utm_campaign=yelp_api_v3&utm_medium=api_v3_business_search&utm_source=a13dN0CY8XDTpMhWiRdWkw", "review_count": 1683, "categories": [{"alias": "korean", "title": "Korean"}, {"alias": "cocktailbars", "title": "Cocktail Bars"}, {"alias": "tapasmallplates", "title": "Tapas/Small Plates"}], "rating": 4.0, "coordinates": {"latitude": 40.73684, "longitude": -73.99069}, "transactions": ["pickup", "delivery"], "price": "$$", "location": {"address1": "35 Union Sq W", "address2": "", "address3": null, "city": "New York", "zip_code": "10003", "country": "US", "state": "NY", "display_address": ["35 Union Sq W", "New York, NY 10003"]}, "phone": "+16463989663", "display_phone": "(646) 398-9663", "distance": 3509.0010091108297}, {"id": "FeSynfcDT4qB2kDixHUQCA", "alias": "danji-new-york", "name": "Danji", "image_url": "https://s3-media2.fl.yelpcdn.com/bphoto/jYZmyTXyker7IaXwNVumNg/o.jpg", "is_closed": false, "url": "https://www.yelp.com/biz/danji-new-york?adjust_creative=a13dN0CY8XDTpMhWiRdWkw&utm_campaign=yelp_api_v3&utm_medium=api_v3_business_search&utm_source=a13dN0CY8XDTpMhWiRdWkw", "review_count": 1019, "categories": [{"alias": "korean", "title": "Korean"}, {"alias": "wine_bars", "title": "Wine Bars"}], "rating": 4.0, "coordinates": {"latitude": 40.764, "longitude": -73.98686}, "transactions": ["delivery"], "price": "$$", "location": {"address1": "346 W 52nd St", "address2": "", "address3": "", "city": "New York", "zip_code": "10019", "country": "US", "state": "NY", "display_address": ["346 W 52nd St", "New York, NY 10019"]}, "phone": "+12125862880", "display_phone": "(212) 586-2880", "distance": 6545.164316646506}, {"id": "x9ADy3a--S_6Oqn_1KLipA", "alias": "kang-ho-dong-baekjeong-new-york", "name": "Kang Ho Dong Baekjeong", "image_url": "https://s3-media2.fl.yelpcdn.com/bphoto/CF9LFMeGsKeQra6Z9ZftfQ/o.jpg", "is_closed": false, "url": "https://www.yelp.com/biz/kang-ho-dong-baekjeong-new-york?adjust_creative=a13dN0CY8XDTpMhWiRdWkw&utm_campaign=yelp_api_v3&utm_medium=api_v3_business_search&utm_source=a13dN0CY8XDTpMhWiRdWkw", "review_count": 1353, "categories": [{"alias": "korean", "title": "Korean"}, {"alias": "bbq", "title": "Barbeque"}], "rating": 4.0, "coordinates": {"latitude": 40.747173576622, "longitude": -73.9852144232788}, "transactions": ["pickup", "delivery"], "price": "$$$", "location": {"address1": "1 E 32nd St", "address2": "", "address3": "", "city": "New York", "zip_code": "10016", "country": "US", "state": "NY", "display_address": ["1 E 32nd St", "New York, NY 10016"]}, "phone": "+12129669839", "display_phone": "(212) 966-9839", "distance": 4702.663263992757}, {"id": "FZpm4_fbd6P984foOUejWg", "alias": "jongro-bbq-new-york-3", "name": "Jongro BBQ", "image_url": "https://s3-media2.fl.yelpcdn.com/bphoto/G0IeLwvmss-QsBu1ZWEIfg/o.jpg", "is_closed": false, "url": "https://www.yelp.com/biz/jongro-bbq-new-york-3?adjust_creative=a13dN0CY8XDTpMhWiRdWkw&utm_campaign=yelp_api_v3&utm_medium=api_v3_business_search&utm_source=a13dN0CY8XDTpMhWiRdWkw", "review_count": 2132, "categories": [{"alias": "korean", "title": "Korean"}, {"alias": "bbq", "title": "Barbeque"}, {"alias": "beerbar", "title": "Beer Bar"}], "rating": 4.0, "coordinates": {"latitude": 40.747514, "longitude": -73.986884}, "transactions": ["pickup", "delivery"], "price": "$$", "location": {"address1": "22 W 32nd St", "address2": "Fl 2", "address3": "", "city": "New York", "zip_code": "10001", "country": "US", "state": "NY", "display_address": ["22 W 32nd St", "Fl 2", "New York, NY 10001"]}, "phone": "+12124732233", "display_phone": "(212) 473-2233", "distance": 4719.351335074731}, {"id": "LMyvruexOQzzHQrAgbdqiA", "alias": "nowon-new-york-2", "name": "Nowon", "image_url": "https://s3-media2.fl.yelpcdn.com/bphoto/DPMf3wMZ3oHHmPf5IH6uQQ/o.jpg", "is_closed": false, "url": "https://www.yelp.com/biz/nowon-new-york-2?adjust_creative=a13dN0CY8XDTpMhWiRdWkw&utm_campaign=yelp_api_v3&utm_medium=api_v3_business_search&utm_source=a13dN0CY8XDTpMhWiRdWkw", "review_count": 156, "categories": [{"alias": "korean", "title": "Korean"}, {"alias": "newamerican", "title": "American (New)"}], "rating": 4.5, "coordinates": {"latitude": 40.72532, "longitude": -73.98334}, "transactions": ["pickup", "delivery"], "location": {"address1": "507 East 6th St", "address2": null, "address3": "", "city": "New York", "zip_code": "10009", "country": "US", "state": "NY", "display_address": ["507 East 6th St", "New York, NY 10009"]}, "phone": "+16466923867", "display_phone": "(646) 692-3867", "distance": 2400.160780489633}, {"id": "uC5_J2l9uwTleh7j5W__kg", "alias": "bokki-seoul-food-brooklyn", "name": "Bokki Seoul Food", "image_url": "https://s3-media2.fl.yelpcdn.com/bphoto/ZadnaWBytRRTDI2Yn1aCrA/o.jpg", "is_closed": false, "url": "https://www.yelp.com/biz/bokki-seoul-food-brooklyn?adjust_creative=a13dN0CY8XDTpMhWiRdWkw&utm_campaign=yelp_api_v3&utm_medium=api_v3_business_search&utm_source=a13dN0CY8XDTpMhWiRdWkw", "review_count": 23, "categories": [{"alias": "korean", "title": "Korean"}], "rating": 4.5, "coordinates": {"latitude": 40.69278448368199, "longitude": -73.98830634081003}, "transactions": ["pickup", "delivery"], "location": {"address1": "374 Pearl St", "address2": null, "address3": "", "city": "Brooklyn", "zip_code": "11201", "country": "US", "state": "NY", "display_address": ["374 Pearl St", "Brooklyn, NY 11201"]}, "phone": "+17182431342", "display_phone": "(718) 243-1342", "distance": 1495.5059393756565}, {"id": "gXnC_aZR09BvqEQKGKFjBg", "alias": "bcd-tofu-house-new-york-3", "name": "BCD Tofu House", "image_url": "https://s3-media2.fl.yelpcdn.com/bphoto/Eg98gCBkeIuRzGCZhuS3Tg/o.jpg", "is_closed": false, "url": "https://www.yelp.com/biz/bcd-tofu-house-new-york-3?adjust_creative=a13dN0CY8XDTpMhWiRdWkw&utm_campaign=yelp_api_v3&utm_medium=api_v3_business_search&utm_source=a13dN0CY8XDTpMhWiRdWkw", "review_count": 2141, "categories": [{"alias": "korean", "title": "Korean"}], "rating": 4.0, "coordinates": {"latitude": 40.747509, "longitude": -73.986079}, "transactions": [], "price": "$$", "location": {"address1": "5W 32nd St", "address2": "", "address3": "", "city": "New York", "zip_code": "10001", "country": "US", "state": "NY", "display_address": ["5W 32nd St", "New York, NY 10001"]}, "phone": "+12129671900", "display_phone": "(212) 967-1900", "distance": 4728.2537291951285}, {"id": "HUKn7SlSjYtemmPiGLnD2w", "alias": "rice-kitchen-new-york", "name": "Rice kitchen", "image_url": "https://s3-media4.fl.yelpcdn.com/bphoto/bWkXw5HQ1f4llF8nyu4rRQ/o.jpg", "is_closed": false, "url": "https://www.yelp.com/biz/rice-kitchen-new-york?adjust_creative=a13dN0CY8XDTpMhWiRdWkw&utm_campaign=yelp_api_v3&utm_medium=api_v3_business_search&utm_source=a13dN0CY8XDTpMhWiRdWkw", "review_count": 95, "categories": [{"alias": "korean", "title": "Korean"}, {"alias": "asianfusion", "title": "Asian Fusion"}], "rating": 5.0, "coordinates": {"latitude": 40.725166, "longitude": -74.003712}, "transactions": ["pickup", "delivery"], "price": "$$", "location": {"address1": "204 Spring St", "address2": null, "address3": "", "city": "New York", "zip_code": "10012", "country": "US", "state": "NY", "display_address": ["204 Spring St", "New York, NY 10012"]}, "phone": "+16466092970", "display_phone": "(646) 609-2970", "distance": 2327.429292016989}, {"id": "wfGFM8zvdw9Zs-jxsTdjww", "alias": "soju-haus-new-york", "name": "Soju Haus", "image_url": "https://s3-media4.fl.yelpcdn.com/bphoto/vugjGOJ4hHXOL1E5wybyEg/o.jpg", "is_closed": false, "url": "https://www.yelp.com/biz/soju-haus-new-york?adjust_creative=a13dN0CY8XDTpMhWiRdWkw&utm_campaign=yelp_api_v3&utm_medium=api_v3_business_search&utm_source=a13dN0CY8XDTpMhWiRdWkw", "review_count": 579, "categories": [{"alias": "korean", "title": "Korean"}, {"alias": "bars", "title": "Bars"}], "rating": 4.0, "coordinates": {"latitude": 40.7468603, "longitude": -73.9851724}, "transactions": ["pickup", "delivery"], "price": "$$", "location": {"address1": "315 5th Ave", "address2": "Fl 2", "address3": "", "city": "New York", "zip_code": "10016", "country": "US", "state": "NY", "display_address": ["315 5th Ave", "Fl 2", "New York, NY 10016"]}, "phone": "+12122132177", "display_phone": "(212) 213-2177", "distance": 4668.8779662572515}, {"id": "X8yEmEDD9ZTkHoIRFqzcRw", "alias": "osamil-new-york", "name": "Osamil", "image_url": "https://s3-media2.fl.yelpcdn.com/bphoto/DqYrPS7e-6VsgjVAihJBrQ/o.jpg", "is_closed": false, "url": "https://www.yelp.com/biz/osamil-new-york?adjust_creative=a13dN0CY8XDTpMhWiRdWkw&utm_campaign=yelp_api_v3&utm_medium=api_v3_business_search&utm_source=a13dN0CY8XDTpMhWiRdWkw", "review_count": 475, "categories": [{"alias": "korean", "title": "Korean"}, {"alias": "gastropubs", "title": "Gastropubs"}, {"alias": "tapasmallplates", "title": "Tapas/Small Plates"}], "rating": 4.5, "coordinates": {"latitude": 40.74697, "longitude": -73.9864}, "transactions": ["pickup", "delivery"], "price": "$$", "location": {"address1": "5 West 31st St", "address2": null, "address3": "", "city": "New York", "zip_code": "10001", "country": "US", "state": "NY", "display_address": ["5 West 31st St", "New York, NY 10001"]}, "phone": "+12123004713", "display_phone": "(212) 300-4713", "distance": 4663.679425010974}, {"id": "2Bg8Jfl2FvH1unmvxNS0dQ", "alias": "sik-gaek-woodside-3", "name": "Sik Gaek", "image_url": "https://s3-media3.fl.yelpcdn.com/bphoto/u6hSZqsh81Ph7mfBIxx_hg/o.jpg", "is_closed": false, "url": "https://www.yelp.com/biz/sik-gaek-woodside-3?adjust_creative=a13dN0CY8XDTpMhWiRdWkw&utm_campaign=yelp_api_v3&utm_medium=api_v3_business_search&utm_source=a13dN0CY8XDTpMhWiRdWkw", "review_count": 580, "categories": [{"alias": "korean", "title": "Korean"}], "rating": 4.0, "coordinates": {"latitude": 40.743485, "longitude": -73.9148356}, "transactions": ["pickup", "delivery"], "price": "$$", "location": {"address1": "49-11 Roosevelt Ave", "address2": "", "address3": "", "city": "Woodside", "zip_code": "11377", "country": "US", "state": "NY", "display_address": ["49-11 Roosevelt Ave", "Woodside, NY 11377"]}, "phone": "+17182054555", "display_phone": "(718) 205-4555", "distance": 7919.99634632335}, {"id": "ogCC-lJJYnwXDvKGmKZ6Sw", "alias": "woorijip-new-york-2", "name": "Woorijip", "image_url": "https://s3-media4.fl.yelpcdn.com/bphoto/taCQ8Tl5mh4i61WCPFCyMQ/o.jpg", "is_closed": false, "url": "https://www.yelp.com/biz/woorijip-new-york-2?adjust_creative=a13dN0CY8XDTpMhWiRdWkw&utm_campaign=yelp_api_v3&utm_medium=api_v3_business_search&utm_source=a13dN0CY8XDTpMhWiRdWkw", "review_count": 2689, "categories": [{"alias": "korean", "title": "Korean"}], "rating": 4.0, "coordinates": {"latitude": 40.74747, "longitude": -73.98648}, "transactions": ["pickup", "delivery"], "price": "$", "location": {"address1": "12 W 32nd St", "address2": "", "address3": "", "city": "New York", "zip_code": "10001", "country": "US", "state": "NY", "display_address": ["12 W 32nd St", "New York, NY 10001"]}, "phone": "+12122441115", "display_phone": "(212) 244-1115", "distance": 4710.703598173038}, {"id": "lSQAmoQtmciUld36ogOoOw", "alias": "cho-dang-gol-korean-restaurant-new-york", "name": "Cho Dang Gol Korean Restaurant", "image_url": "https://s3-media3.fl.yelpcdn.com/bphoto/gI_zL8hrPlHIx1fVDG4uDQ/o.jpg", "is_closed": false, "url": "https://www.yelp.com/biz/cho-dang-gol-korean-restaurant-new-york?adjust_creative=a13dN0CY8XDTpMhWiRdWkw&utm_campaign=yelp_api_v3&utm_medium=api_v3_business_search&utm_source=a13dN0CY8XDTpMhWiRdWkw", "review_count": 1196, "categories": [{"alias": "korean", "title": "Korean"}], "rating": 4.0, "coordinates": {"latitude": 40.7502365112305, "longitude": -73.986198425293}, "transactions": ["pickup", "delivery"], "price": "$$", "location": {"address1": "55 W 35th St", "address2": "", "address3": "", "city": "New York", "zip_code": "10001", "country": "US", "state": "NY", "display_address": ["55 W 35th St", "New York, NY 10001"]}, "phone": "+12126958222", "display_phone": "(212) 695-8222", "distance": 5029.23495949905}, {"id": "TTGFxOebpxfLVVFqfZemKA", "alias": "boka-new-york-2", "name": "Boka", "image_url": "https://s3-media1.fl.yelpcdn.com/bphoto/0MWsvWoLh7D65LHjCWGaYA/o.jpg", "is_closed": false, "url": "https://www.yelp.com/biz/boka-new-york-2?adjust_creative=a13dN0CY8XDTpMhWiRdWkw&utm_campaign=yelp_api_v3&utm_medium=api_v3_business_search&utm_source=a13dN0CY8XDTpMhWiRdWkw", "review_count": 57, "categories": [{"alias": "korean", "title": "Korean"}, {"alias": "bbq", "title": "Barbeque"}, {"alias": "seafood", "title": "Seafood"}], "rating": 4.5, "coordinates": {"latitude": 40.714809, "longitude": -73.998272}, "transactions": ["pickup", "delivery"], "price": "$$", "location": {"address1": "23 Pell St", "address2": null, "address3": "", "city": "New York", "zip_code": "10013", "country": "US", "state": "NY", "display_address": ["23 Pell St", "New York, NY 10013"]}, "phone": "+16465590331", "display_phone": "(646) 559-0331", "distance": 1093.9176648569112}, {"id": "LSTcQPMmoSdd68zur-aNdw", "alias": "itaewon-pocha-new-york", "name": "Itaewon Pocha", "image_url": "https://s3-media1.fl.yelpcdn.com/bphoto/j2x3unNX8v8AExvD8wHzIg/o.jpg", "is_closed": false, "url": "https://www.yelp.com/biz/itaewon-pocha-new-york?adjust_creative=a13dN0CY8XDTpMhWiRdWkw&utm_campaign=yelp_api_v3&utm_medium=api_v3_business_search&utm_source=a13dN0CY8XDTpMhWiRdWkw", "review_count": 151, "categories": [{"alias": "gastropubs", "title": "Gastropubs"}, {"alias": "korean", "title": "Korean"}], "rating": 4.5, "coordinates": {"latitude": 40.7475125111924, "longitude": -73.9867554408843}, "transactions": ["delivery", "restaurant_reservation"], "price": "$$", "location": {"address1": "28 W 32nd St", "address2": "Fl 2", "address3": null, "city": "New York", "zip_code": "10001", "country": "US", "state": "NY", "display_address": ["28 W 32nd St", "Fl 2", "New York, NY 10001"]}, "phone": "+12129672228", "display_phone": "(212) 967-2228", "distance": 4720.632711850733}, {"id": "unKv93JlCAZZfkkuDiNE-g", "alias": "k-top-korean-fried-chicken-brooklyn-4", "name": "K-Top Korean Fried Chicken", "image_url": "https://s3-media1.fl.yelpcdn.com/bphoto/sgPOFYWrvpxSGk8zQITJGw/o.jpg", "is_closed": false, "url": "https://www.yelp.com/biz/k-top-korean-fried-chicken-brooklyn-4?adjust_creative=a13dN0CY8XDTpMhWiRdWkw&utm_campaign=yelp_api_v3&utm_medium=api_v3_business_search&utm_source=a13dN0CY8XDTpMhWiRdWkw", "review_count": 27, "categories": [{"alias": "chicken_wings", "title": "Chicken Wings"}, {"alias": "korean", "title": "Korean"}, {"alias": "comfortfood", "title": "Comfort Food"}], "rating": 5.0, "coordinates": {"latitude": 40.71499, "longitude": -73.95833}, "transactions": ["pickup", "delivery"], "price": "$$", "location": {"address1": "639 Driggs Ave", "address2": "", "address3": null, "city": "Brooklyn", "zip_code": "11211", "country": "US", "state": "NY", "display_address": ["639 Driggs Ave", "Brooklyn, NY 11211"]}, "phone": "+19179091498", "display_phone": "(917) 909-1498", "distance": 3213.856691114102}, {"id": "_vQugjzPLr-4udYpiISieA", "alias": "gopchang-story-bbq-new-york", "name": "Gopchang Story BBQ", "image_url": "https://s3-media1.fl.yelpcdn.com/bphoto/9iWQClZDB5Zm_0c1JgxtEQ/o.jpg", "is_closed": false, "url": "https://www.yelp.com/biz/gopchang-story-bbq-new-york?adjust_creative=a13dN0CY8XDTpMhWiRdWkw&utm_campaign=yelp_api_v3&utm_medium=api_v3_business_search&utm_source=a13dN0CY8XDTpMhWiRdWkw", "review_count": 438, "categories": [{"alias": "bbq", "title": "Barbeque"}, {"alias": "korean", "title": "Korean"}], "rating": 4.0, "coordinates": {"latitude": 40.74701, "longitude": -73.98583}, "transactions": ["pickup", "delivery"], "price": "$$", "location": {"address1": "312 5th Ave", "address2": "Fl 2", "address3": "", "city": "New York", "zip_code": "10001", "country": "US", "state": "NY", "display_address": ["312 5th Ave", "Fl 2", "New York, NY 10001"]}, "phone": "+16463719469", "display_phone": "(646) 371-9469", "distance": 4678.771765245314}, {"id": "vWoT1h8E2eWvIdJqpuxfdg", "alias": "tofu-tofu-new-york-5", "name": "Tofu Tofu", "image_url": "https://s3-media1.fl.yelpcdn.com/bphoto/ratkcn43qXueDQ5pvqXKwQ/o.jpg", "is_closed": false, "url": "https://www.yelp.com/biz/tofu-tofu-new-york-5?adjust_creative=a13dN0CY8XDTpMhWiRdWkw&utm_campaign=yelp_api_v3&utm_medium=api_v3_business_search&utm_source=a13dN0CY8XDTpMhWiRdWkw", "review_count": 387, "categories": [{"alias": "korean", "title": "Korean"}, {"alias": "juicebars", "title": "Juice Bars & Smoothies"}, {"alias": "bbq", "title": "Barbeque"}], "rating": 4.5, "coordinates": {"latitude": 40.7176299520983, "longitude": -73.9954301342368}, "transactions": ["pickup", "delivery"], "price": "$$", "location": {"address1": "96 Bowery", "address2": "", "address3": null, "city": "New York", "zip_code": "10013", "country": "US", "state": "NY", "display_address": ["96 Bowery", "New York, NY 10013"]}, "phone": "+12127962597", "display_phone": "(212) 796-2597", "distance": 1358.3028621217425}, {"id": "_saXnBy0Wq2Gb3YusWZhqw", "alias": "five-senses-new-york", "name": "Five Senses", "image_url": "https://s3-media3.fl.yelpcdn.com/bphoto/Wxh01qA7K-xUVM-0pqBCdg/o.jpg", "is_closed": false, "url": "https://www.yelp.com/biz/five-senses-new-york?adjust_creative=a13dN0CY8XDTpMhWiRdWkw&utm_campaign=yelp_api_v3&utm_medium=api_v3_business_search&utm_source=a13dN0CY8XDTpMhWiRdWkw", "review_count": 1516, "categories": [{"alias": "korean", "title": "Korean"}, {"alias": "bbq", "title": "Barbeque"}], "rating": 4.0, "coordinates": {"latitude": 40.747573158626, "longitude": -73.9863122632311}, "transactions": ["pickup", "delivery"], "price": "$$", "location": {"address1": "9 W 32nd St", "address2": "", "address3": "", "city": "New York", "zip_code": "10001", "country": "US", "state": "NY", "display_address": ["9 W 32nd St", "New York, NY 10001"]}, "phone": "+12124410005", "display_phone": "(212) 441-0005", "distance": 4732.477702641706}, {"id": "H5jHfG4ZkNPaG6vojmAXww", "alias": "chingoo-restaurant-brooklyn", "name": "Chingoo Restaurant", "image_url": "https://s3-media4.fl.yelpcdn.com/bphoto/liYMmiKXH6GRUrWx3-TmdQ/o.jpg", "is_closed": false, "url": "https://www.yelp.com/biz/chingoo-restaurant-brooklyn?adjust_creative=a13dN0CY8XDTpMhWiRdWkw&utm_campaign=yelp_api_v3&utm_medium=api_v3_business_search&utm_source=a13dN0CY8XDTpMhWiRdWkw", "review_count": 71, "categories": [{"alias": "korean", "title": "Korean"}], "rating": 4.5, "coordinates": {"latitude": 40.715796, "longitude": -73.944733}, "transactions": ["pickup", "delivery"], "price": "$$", "location": {"address1": "373 Graham Ave", "address2": null, "address3": "", "city": "Brooklyn", "zip_code": "11211", "country": "US", "state": "NY", "display_address": ["373 Graham Ave", "Brooklyn, NY 11211"]}, "phone": "+13479161269", "display_phone": "(347) 916-1269", "distance": 4332.958566099499}, {"id": "0GN6l4FAknTFSWZhEan45A", "alias": "gunbae-tribeca-new-york", "name": "GunBae Tribeca", "image_url": "https://s3-media2.fl.yelpcdn.com/bphoto/KxkF-jXz-aUw2B9ghw6Ytg/o.jpg", "is_closed": false, "url": "https://www.yelp.com/biz/gunbae-tribeca-new-york?adjust_creative=a13dN0CY8XDTpMhWiRdWkw&utm_campaign=yelp_api_v3&utm_medium=api_v3_business_search&utm_source=a13dN0CY8XDTpMhWiRdWkw", "review_count": 315, "categories": [{"alias": "korean", "title": "Korean"}, {"alias": "karaoke", "title": "Karaoke"}, {"alias": "bbq", "title": "Barbeque"}], "rating": 4.0, "coordinates": {"latitude": 40.714683, "longitude": -74.010223}, "transactions": ["pickup", "delivery", "restaurant_reservation"], "price": "$$", "location": {"address1": "67 Murray St", "address2": "", "address3": "", "city": "New York", "zip_code": "10007", "country": "US", "state": "NY", "display_address": ["67 Murray St", "New York, NY 10007"]}, "phone": "+12123212500", "display_phone": "(212) 321-2500", "distance": 1690.7499416334247}, {"id": "SLfVjeW6AauL6zaYjsCOTQ", "alias": "barn-joo-nomad-new-york-3", "name": "Barn Joo Nomad", "image_url": "https://s3-media2.fl.yelpcdn.com/bphoto/_EOYn7uZXNj4x-yrnGC0yg/o.jpg", "is_closed": false, "url": "https://www.yelp.com/biz/barn-joo-nomad-new-york-3?adjust_creative=a13dN0CY8XDTpMhWiRdWkw&utm_campaign=yelp_api_v3&utm_medium=api_v3_business_search&utm_source=a13dN0CY8XDTpMhWiRdWkw", "review_count": 53, "categories": [{"alias": "korean", "title": "Korean"}], "rating": 4.5, "coordinates": {"latitude": 40.74604, "longitude": -73.99022}, "transactions": ["pickup", "delivery"], "location": {"address1": "816 6th Ave", "address2": "", "address3": null, "city": "New York", "zip_code": "10001", "country": "US", "state": "NY", "display_address": ["816 6th Ave", "New York, NY 10001"]}, "phone": "+19174091637", "display_phone": "(917) 409-1637", "distance": 4530.426469115876}, {"id": "2jkR9i54loLxuaowoPX5Fw", "alias": "kimbap-lab-brooklyn", "name": "Kimbap Lab", "image_url": "https://s3-media2.fl.yelpcdn.com/bphoto/n56yi1_ymNf-Y1l6OfMGbA/o.jpg", "is_closed": false, "url": "https://www.yelp.com/biz/kimbap-lab-brooklyn?adjust_creative=a13dN0CY8XDTpMhWiRdWkw&utm_campaign=yelp_api_v3&utm_medium=api_v3_business_search&utm_source=a13dN0CY8XDTpMhWiRdWkw", "review_count": 48, "categories": [{"alias": "korean", "title": "Korean"}, {"alias": "gluten_free", "title": "Gluten-Free"}, {"alias": "vegan", "title": "Vegan"}], "rating": 5.0, "coordinates": {"latitude": 40.71611, "longitude": -73.95974}, "transactions": ["pickup", "delivery"], "price": "$$", "location": {"address1": "238 Bedford Ave", "address2": "", "address3": null, "city": "Brooklyn", "zip_code": "11249", "country": "US", "state": "NY", "display_address": ["238 Bedford Ave", "Brooklyn, NY 11249"]}, "phone": "+17187342321", "display_phone": "(718) 734-2321", "distance": 3148.380397033501}, {"id": "L7_siqDfU4-ZA17YtA-SBg", "alias": "silver-factory-brooklyn", "name": "Silver Factory", "image_url": "https://s3-media4.fl.yelpcdn.com/bphoto/jIK4cIYx8mer_6MBxDR_iQ/o.jpg", "is_closed": false, "url": "https://www.yelp.com/biz/silver-factory-brooklyn?adjust_creative=a13dN0CY8XDTpMhWiRdWkw&utm_campaign=yelp_api_v3&utm_medium=api_v3_business_search&utm_source=a13dN0CY8XDTpMhWiRdWkw", "review_count": 232, "categories": [{"alias": "korean", "title": "Korean"}, {"alias": "bars", "title": "Bars"}], "rating": 4.5, "coordinates": {"latitude": 40.709227, "longitude": -73.958598}, "transactions": ["pickup", "delivery", "restaurant_reservation"], "price": "$$", "location": {"address1": "270 South 5th St", "address2": null, "address3": "", "city": "Brooklyn", "zip_code": "11211", "country": "US", "state": "NY", "display_address": ["270 South 5th St", "Brooklyn, NY 11211"]}, "phone": "+13477253017", "display_phone": "(347) 725-3017", "distance": 3039.9237511522865}, {"id": "IjQ2yGUKkvP0JIldT9vRFQ", "alias": "take31-new-york", "name": "Take31", "image_url": "https://s3-media1.fl.yelpcdn.com/bphoto/sIRAyUfT0hU3RX1u7_8wbg/o.jpg", "is_closed": false, "url": "https://www.yelp.com/biz/take31-new-york?adjust_creative=a13dN0CY8XDTpMhWiRdWkw&utm_campaign=yelp_api_v3&utm_medium=api_v3_business_search&utm_source=a13dN0CY8XDTpMhWiRdWkw", "review_count": 668, "categories": [{"alias": "korean", "title": "Korean"}, {"alias": "gastropubs", "title": "Gastropubs"}, {"alias": "breakfast_brunch", "title": "Breakfast & Brunch"}], "rating": 4.0, "coordinates": {"latitude": 40.7463, "longitude": -73.984809}, "transactions": ["pickup", "delivery"], "price": "$$", "location": {"address1": "15 E 31st St", "address2": "", "address3": "", "city": "New York", "zip_code": "10016", "country": "US", "state": "NY", "display_address": ["15 E 31st St", "New York, NY 10016"]}, "phone": "+19292370681", "display_phone": "(929) 237-0681", "distance": 4612.644654142086}, {"id": "fX_E2J6LqK6u77zNa8xyJQ", "alias": "jua-new-york", "name": "JUA", "image_url": "https://s3-media4.fl.yelpcdn.com/bphoto/pH1IhXFSoeBaMWh1cYCq1A/o.jpg", "is_closed": false, "url": "https://www.yelp.com/biz/jua-new-york?adjust_creative=a13dN0CY8XDTpMhWiRdWkw&utm_campaign=yelp_api_v3&utm_medium=api_v3_business_search&utm_source=a13dN0CY8XDTpMhWiRdWkw", "review_count": 115, "categories": [{"alias": "korean", "title": "Korean"}], "rating": 5.0, "coordinates": {"latitude": 40.739694, "longitude": -73.987832}, "transactions": ["pickup", "delivery"], "price": "$$$$", "location": {"address1": "36 E 22nd St", "address2": null, "address3": "", "city": "New York", "zip_code": "10010", "country": "US", "state": "NY", "display_address": ["36 E 22nd St", "New York, NY 10010"]}, "phone": "", "display_phone": "", "distance": 3845.050813946774}, {"id": "YqWXNq0Ku7cGb6Zj1j43Pw", "alias": "kal-astoria", "name": "KAL", "image_url": "https://s3-media1.fl.yelpcdn.com/bphoto/gZJT52Ivjhjz73lY0-MxGA/o.jpg", "is_closed": false, "url": "https://www.yelp.com/biz/kal-astoria?adjust_creative=a13dN0CY8XDTpMhWiRdWkw&utm_campaign=yelp_api_v3&utm_medium=api_v3_business_search&utm_source=a13dN0CY8XDTpMhWiRdWkw", "review_count": 198, "categories": [{"alias": "korean", "title": "Korean"}, {"alias": "seafood", "title": "Seafood"}, {"alias": "soup", "title": "Soup"}], "rating": 4.5, "coordinates": {"latitude": 40.76584, "longitude": -73.91859}, "transactions": ["pickup", "delivery"], "price": "$$", "location": {"address1": "34-05 30th Ave", "address2": null, "address3": "", "city": "Astoria", "zip_code": "11103", "country": "US", "state": "NY", "display_address": ["34-05 30th Ave", "Astoria, NY 11103"]}, "phone": "+19293491230", "display_phone": "(929) 349-1230", "distance": 9261.880442747193}, {"id": "jvBtgqUpW0v4wO5QQ-HALQ", "alias": "east-hae-brooklyn", "name": "East Hae", "image_url": "https://s3-media2.fl.yelpcdn.com/bphoto/Mw9oa6qSfIra9aGHQsjkGw/o.jpg", "is_closed": false, "url": "https://www.yelp.com/biz/east-hae-brooklyn?adjust_creative=a13dN0CY8XDTpMhWiRdWkw&utm_campaign=yelp_api_v3&utm_medium=api_v3_business_search&utm_source=a13dN0CY8XDTpMhWiRdWkw", "review_count": 52, "categories": [{"alias": "gastropubs", "title": "Gastropubs"}, {"alias": "korean", "title": "Korean"}, {"alias": "tradamerican", "title": "American (Traditional)"}], "rating": 4.0, "coordinates": {"latitude": 40.71847, "longitude": -73.96054}, "transactions": ["pickup", "delivery"], "price": "$$", "location": {"address1": "98 N 6th St", "address2": "Fl 3", "address3": "Urban Outfitters Space 98", "city": "Brooklyn", "zip_code": "11249", "country": "US", "state": "NY", "display_address": ["98 N 6th St", "Fl 3", "Urban Outfitters Space 98", "Brooklyn, NY 11249"]}, "phone": "+19292393421", "display_phone": "(929) 239-3421", "distance": 3193.5428675322723}, {"id": "xWUL-j6TQyKQHIfOtetu-Q", "alias": "hangawi-new-york", "name": "HanGawi", "image_url": "https://s3-media2.fl.yelpcdn.com/bphoto/twJ0jxVMtTJN3TfcAP1zmQ/o.jpg", "is_closed": false, "url": "https://www.yelp.com/biz/hangawi-new-york?adjust_creative=a13dN0CY8XDTpMhWiRdWkw&utm_campaign=yelp_api_v3&utm_medium=api_v3_business_search&utm_source=a13dN0CY8XDTpMhWiRdWkw", "review_count": 1225, "categories": [{"alias": "vegetarian", "title": "Vegetarian"}, {"alias": "korean", "title": "Korean"}, {"alias": "vegan", "title": "Vegan"}], "rating": 4.0, "coordinates": {"latitude": 40.746737, "longitude": -73.984662}, "transactions": ["pickup", "delivery"], "price": "$$$", "location": {"address1": "12 E 32nd St", "address2": "", "address3": "", "city": "New York", "zip_code": "10016", "country": "US", "state": "NY", "display_address": ["12 E 32nd St", "New York, NY 10016"]}, "phone": "+12122130077", "display_phone": "(212) 213-0077", "distance": 4662.649209347736}, {"id": "D0EV-xXaUUi35raZ_hWg-w", "alias": "momofuku-ssam-bar-new-york-6", "name": "Momofuku Ssam Bar", "image_url": "https://s3-media1.fl.yelpcdn.com/bphoto/s6RpRA8RfatqhFWn6oVihg/o.jpg", "is_closed": false, "url": "https://www.yelp.com/biz/momofuku-ssam-bar-new-york-6?adjust_creative=a13dN0CY8XDTpMhWiRdWkw&utm_campaign=yelp_api_v3&utm_medium=api_v3_business_search&utm_source=a13dN0CY8XDTpMhWiRdWkw", "review_count": 42, "categories": [{"alias": "korean", "title": "Korean"}, {"alias": "asianfusion", "title": "Asian Fusion"}, {"alias": "cocktailbars", "title": "Cocktail Bars"}], "rating": 4.0, "coordinates": {"latitude": 40.705712, "longitude": -74.001772}, "transactions": [], "location": {"address1": "89 South St", "address2": "Pier 17", "address3": null, "city": "New York", "zip_code": "10038", "country": "US", "state": "NY", "display_address": ["89 South St", "Pier 17", "New York, NY 10038"]}, "phone": "", "display_phone": "", "distance": 633.1849803021449}, {"id": "e5wK3I_THzF4Ce_OgoSCQw", "alias": "mokyo-new-york-2", "name": "MOKYO", "image_url": "https://s3-media4.fl.yelpcdn.com/bphoto/5iR0_udC0Z_D1nBye5JQXw/o.jpg", "is_closed": false, "url": "https://www.yelp.com/biz/mokyo-new-york-2?adjust_creative=a13dN0CY8XDTpMhWiRdWkw&utm_campaign=yelp_api_v3&utm_medium=api_v3_business_search&utm_source=a13dN0CY8XDTpMhWiRdWkw", "review_count": 156, "categories": [{"alias": "korean", "title": "Korean"}, {"alias": "tapasmallplates", "title": "Tapas/Small Plates"}, {"alias": "asianfusion", "title": "Asian Fusion"}], "rating": 4.5, "coordinates": {"latitude": 40.727223, "longitude": -73.983878}, "transactions": [], "location": {"address1": "109 St Marks Pl", "address2": "", "address3": null, "city": "New York", "zip_code": "10009", "country": "US", "state": "NY", "display_address": ["109 St Marks Pl", "New York, NY 10009"]}, "phone": "", "display_phone": "", "distance": 2574.1694660765133}, {"id": "cOXYWZ_GTX-_ue_kveguRg", "alias": "ssam-brooklyn", "name": "SSAM", "image_url": "https://s3-media4.fl.yelpcdn.com/bphoto/3Mro7JeEMXTW9x30111LRw/o.jpg", "is_closed": false, "url": "https://www.yelp.com/biz/ssam-brooklyn?adjust_creative=a13dN0CY8XDTpMhWiRdWkw&utm_campaign=yelp_api_v3&utm_medium=api_v3_business_search&utm_source=a13dN0CY8XDTpMhWiRdWkw", "review_count": 430, "categories": [{"alias": "korean", "title": "Korean"}, {"alias": "chicken_wings", "title": "Chicken Wings"}, {"alias": "ramen", "title": "Ramen"}], "rating": 3.5, "coordinates": {"latitude": 40.68594, "longitude": -73.991274}, "transactions": ["pickup", "delivery"], "price": "$$", "location": {"address1": "170 Smith St", "address2": "", "address3": "", "city": "Brooklyn", "zip_code": "11201", "country": "US", "state": "NY", "display_address": ["170 Smith St", "Brooklyn, NY 11201"]}, "phone": "+19179091248", "display_phone": "(917) 909-1248", "distance": 2183.724938894009}, {"id": "LHcpOjPtc8QQCrFiRFjWyA", "alias": "slow-loris-brooklyn", "name": "Slow Loris", "image_url": "https://s3-media1.fl.yelpcdn.com/bphoto/D6F4uu4nc3wEr30-Fllt7w/o.jpg", "is_closed": false, "url": "https://www.yelp.com/biz/slow-loris-brooklyn?adjust_creative=a13dN0CY8XDTpMhWiRdWkw&utm_campaign=yelp_api_v3&utm_medium=api_v3_business_search&utm_source=a13dN0CY8XDTpMhWiRdWkw", "review_count": 129, "categories": [{"alias": "korean", "title": "Korean"}, {"alias": "japanese", "title": "Japanese"}], "rating": 4.5, "coordinates": {"latitude": 40.6601311, "longitude": -73.9607934}, "transactions": ["pickup", "delivery"], "price": "$$", "location": {"address1": "556 Flatbush Ave", "address2": "", "address3": null, "city": "Brooklyn", "zip_code": "11225", "country": "US", "state": "NY", "display_address": ["556 Flatbush Ave", "Brooklyn, NY 11225"]}, "phone": "+17184847170", "display_phone": "(718) 484-7170", "distance": 5748.823509670541}, {"id": "PAQDvkvVselqlhOc0Mh92g", "alias": "doma-new-york-4", "name": "Doma", "image_url": "https://s3-media3.fl.yelpcdn.com/bphoto/vqfcvJPHcnxGI-cXZLXhsg/o.jpg", "is_closed": false, "url": "https://www.yelp.com/biz/doma-new-york-4?adjust_creative=a13dN0CY8XDTpMhWiRdWkw&utm_campaign=yelp_api_v3&utm_medium=api_v3_business_search&utm_source=a13dN0CY8XDTpMhWiRdWkw", "review_count": 39, "categories": [{"alias": "korean", "title": "Korean"}, {"alias": "bars", "title": "Bars"}, {"alias": "tapasmallplates", "title": "Tapas/Small Plates"}], "rating": 4.5, "coordinates": {"latitude": 40.72703, "longitude": -73.985392}, "transactions": ["pickup", "delivery"], "price": "$$", "location": {"address1": "120 1st Ave", "address2": "", "address3": null, "city": "New York", "zip_code": "10009", "country": "US", "state": "NY", "display_address": ["120 1st Ave", "New York, NY 10009"]}, "phone": "+16466783092", "display_phone": "(646) 678-3092", "distance": 2512.863769062223}, {"id": "md5mjDamLsh1uxHDU9PfGA", "alias": "mr-mista-oh-new-york", "name": "Mr Mista Oh", "image_url": "https://s3-media1.fl.yelpcdn.com/bphoto/snXB7jumjpHvaAB-TFWV9w/o.jpg", "is_closed": false, "url": "https://www.yelp.com/biz/mr-mista-oh-new-york?adjust_creative=a13dN0CY8XDTpMhWiRdWkw&utm_campaign=yelp_api_v3&utm_medium=api_v3_business_search&utm_source=a13dN0CY8XDTpMhWiRdWkw", "review_count": 71, "categories": [{"alias": "korean", "title": "Korean"}], "rating": 4.5, "coordinates": {"latitude": 40.74324, "longitude": -73.99123}, "transactions": ["pickup", "delivery"], "price": "$$", "location": {"address1": "41 W 24th St", "address2": null, "address3": "", "city": "New York", "zip_code": "10010", "country": "US", "state": "NY", "display_address": ["41 W 24th St", "New York, NY 10010"]}, "phone": "+16465598858", "display_phone": "(646) 559-8858", "distance": 4214.777209058021}, {"id": "KEBKGGGkDhnuYdKrjzZblw", "alias": "samwon-garden-korean-bbq-new-york-2", "name": "Samwon Garden Korean BBQ", "image_url": "https://s3-media3.fl.yelpcdn.com/bphoto/lSu7UdF32e-TVRDb8op83Q/o.jpg", "is_closed": false, "url": "https://www.yelp.com/biz/samwon-garden-korean-bbq-new-york-2?adjust_creative=a13dN0CY8XDTpMhWiRdWkw&utm_campaign=yelp_api_v3&utm_medium=api_v3_business_search&utm_source=a13dN0CY8XDTpMhWiRdWkw", "review_count": 672, "categories": [{"alias": "korean", "title": "Korean"}, {"alias": "bbq", "title": "Barbeque"}], "rating": 4.5, "coordinates": {"latitude": 40.74811, "longitude": -73.9872}, "transactions": ["delivery", "restaurant_reservation"], "price": "$$$", "location": {"address1": "37 W 32nd St", "address2": null, "address3": "", "city": "New York", "zip_code": "10001", "country": "US", "state": "NY", "display_address": ["37 W 32nd St", "New York, NY 10001"]}, "phone": "+12126953131", "display_phone": "(212) 695-3131", "distance": 4781.572864242262}, {"id": "aDa_tRm65ODVcJBUcx2QOw", "alias": "koba-new-york-2", "name": "KoBa", "image_url": "https://s3-media1.fl.yelpcdn.com/bphoto/sXT2h6TOFfdLjJvRWNRTVg/o.jpg", "is_closed": false, "url": "https://www.yelp.com/biz/koba-new-york-2?adjust_creative=a13dN0CY8XDTpMhWiRdWkw&utm_campaign=yelp_api_v3&utm_medium=api_v3_business_search&utm_source=a13dN0CY8XDTpMhWiRdWkw", "review_count": 7, "categories": [{"alias": "korean", "title": "Korean"}], "rating": 5.0, "coordinates": {"latitude": 40.75206, "longitude": -73.99008}, "transactions": ["pickup", "delivery"], "location": {"address1": "470 7th Ave", "address2": "", "address3": "Inside The Bread Factory", "city": "New York", "zip_code": "10018", "country": "US", "state": "NY", "display_address": ["470 7th Ave", "Inside The Bread Factory", "New York, NY 10018"]}, "phone": "", "display_phone": "", "distance": 5205.804603756256}, {"id": "orYWYTk6kNK1YODsADk_tg", "alias": "the-jin-new-york", "name": "The Jin", "image_url": "https://s3-media2.fl.yelpcdn.com/bphoto/_4NFiVvIpG4EY4ttkMzyKA/o.jpg", "is_closed": false, "url": "https://www.yelp.com/biz/the-jin-new-york?adjust_creative=a13dN0CY8XDTpMhWiRdWkw&utm_campaign=yelp_api_v3&utm_medium=api_v3_business_search&utm_source=a13dN0CY8XDTpMhWiRdWkw", "review_count": 356, "categories": [{"alias": "korean", "title": "Korean"}, {"alias": "chicken_wings", "title": "Chicken Wings"}, {"alias": "ramen", "title": "Ramen"}], "rating": 4.5, "coordinates": {"latitude": 40.768541, "longitude": -73.988734}, "transactions": ["pickup", "delivery"], "price": "$$", "location": {"address1": "856 10th Ave", "address2": null, "address3": "", "city": "New York", "zip_code": "10019", "country": "US", "state": "NY", "display_address": ["856 10th Ave", "New York, NY 10019"]}, "phone": "+12122233488", "display_phone": "(212) 223-3488", "distance": 7032.318520575176}], "total": 240, "region": {"center": {"longitude": -73.99429321289062, "latitude": 40.70544486444615}}}