{"businesses": [{"id": "6Ct7OeTRn4caY9g0swFBsw", "alias": "la-contenta-new-york", "name": "La Contenta", "image_url": "https://s3-media2.fl.yelpcdn.com/bphoto/FwZAyPgdKdPGQ8aAGKh3-w/o.jpg", "is_closed": false, "url": "https://www.yelp.com/biz/la-contenta-new-york?adjust_creative=a13dN0CY8XDTpMhWiRdWkw&utm_campaign=yelp_api_v3&utm_medium=api_v3_business_search&utm_source=a13dN0CY8XDTpMhWiRdWkw", "review_count": 805, "categories": [{"alias": "mexican", "title": "Mexican"}, {"alias": "bars", "title": "Bars"}, {"alias": "breakfast_brunch", "title": "Breakfast & Brunch"}], "rating": 4.5, "coordinates": {"latitude": 40.71873, "longitude": -73.98691}, "transactions": ["pickup", "delivery"], "price": "$$", "location": {"address1": "102 Norfolk St", "address2": "", "address3": "", "city": "New York", "zip_code": "10002", "country": "US", "state": "NY", "display_address": ["102 Norfolk St", "New York, NY 10002"]}, "phone": "+12124324180", "display_phone": "(212) 432-4180", "distance": 1605.0692537545654}, {"id": "9aJ1MVTthZw3QjqoG7mPjg", "alias": "rosies-new-york-2", "name": "Rosie's", "image_url": "https://s3-media1.fl.yelpcdn.com/bphoto/C5Mf9gLWxbTiTzmOp2B2YQ/o.jpg", "is_closed": false, "url": "https://www.yelp.com/biz/rosies-new-york-2?adjust_creative=a13dN0CY8XDTpMhWiRdWkw&utm_campaign=yelp_api_v3&utm_medium=api_v3_business_search&utm_source=a13dN0CY8XDTpMhWiRdWkw", "review_count": 790, "categories": [{"alias": "mexican", "title": "Mexican"}], "rating": 4.0, "coordinates": {"latitude": 40.72492, "longitude": -73.99079}, "transactions": ["pickup", "delivery"], "price": "$$", "location": {"address1": "29 E 2nd St", "address2": null, "address3": "", "city": "New York", "zip_code": "10003", "country": "US", "state": "NY", "display_address": ["29 E 2nd St", "New York, NY 10003"]}, "phone": "+12123350114", "display_phone": "(212) 335-0114", "distance": 2184.8979126551453}, {"id": "BbMUXd69i0tlWS2aoppwaQ", "alias": "el-camion-new-york", "name": "El Camion", "image_url": "https://s3-media3.fl.yelpcdn.com/bphoto/AKQiOduSegbWFk8zbG0YlA/o.jpg", "is_closed": false, "url": "https://www.yelp.com/biz/el-camion-new-york?adjust_creative=a13dN0CY8XDTpMhWiRdWkw&utm_campaign=yelp_api_v3&utm_medium=api_v3_business_search&utm_source=a13dN0CY8XDTpMhWiRdWkw", "review_count": 717, "categories": [{"alias": "mexican", "title": "Mexican"}], "rating": 4.0, "coordinates": {"latitude": 40.7291, "longitude": -73.98105}, "transactions": ["pickup", "delivery"], "price": "$$", "location": {"address1": "194 Ave A", "address2": "", "address3": "", "city": "New York", "zip_code": "10009", "country": "US", "state": "NY", "display_address": ["194 Ave A", "New York, NY 10009"]}, "phone": "+12125335436", "display_phone": "(212) 533-5436", "distance": 2859.0916051095014}, {"id": "Wx6lMnEh7dCmX-9PQF1Ifw", "alias": "toloache-50-new-york", "name": "Toloache 50", "image_url": "https://s3-media4.fl.yelpcdn.com/bphoto/m5yGUnpSxMB0KaxgwwXMQA/o.jpg", "is_closed": false, "url": "https://www.yelp.com/biz/toloache-50-new-york?adjust_creative=a13dN0CY8XDTpMhWiRdWkw&utm_campaign=yelp_api_v3&utm_medium=api_v3_business_search&utm_source=a13dN0CY8XDTpMhWiRdWkw", "review_count": 2024, "categories": [{"alias": "mexican", "title": "Mexican"}], "rating": 4.0, "coordinates": {"latitude": 40.762227, "longitude": -73.9856178382696}, "transactions": ["pickup", "delivery"], "price": "$$", "location": {"address1": "251 West 50th St", "address2": "", "address3": "", "city": "New York", "zip_code": "10012", "country": "US", "state": "NY", "display_address": ["251 West 50th St", "New York, NY 10012"]}, "phone": "+12125811818", "display_phone": "(212) 581-1818", "distance": 6356.050185697199}, {"id": "uVfOB37NyYEGRs5FITM-nQ", "alias": "leyenda-brooklyn", "name": "Leyenda", "image_url": "https://s3-media2.fl.yelpcdn.com/bphoto/xmzICvK5W37OzD61Bpv1uQ/o.jpg", "is_closed": false, "url": "https://www.yelp.com/biz/leyenda-brooklyn?adjust_creative=a13dN0CY8XDTpMhWiRdWkw&utm_campaign=yelp_api_v3&utm_medium=api_v3_business_search&utm_source=a13dN0CY8XDTpMhWiRdWkw", "review_count": 264, "categories": [{"alias": "latin", "title": "Latin American"}, {"alias": "mexican", "title": "Mexican"}, {"alias": "cocktailbars", "title": "Cocktail Bars"}], "rating": 4.0, "coordinates": {"latitude": 40.68431, "longitude": -73.99197}, "transactions": ["pickup", "delivery"], "price": "$$", "location": {"address1": "221 Smith St", "address2": "", "address3": "", "city": "Brooklyn", "zip_code": "11201", "country": "US", "state": "NY", "display_address": ["221 Smith St", "Brooklyn, NY 11201"]}, "phone": "+13479873260", "display_phone": "(347) 987-3260", "distance": 2361.4337938854646}, {"id": "4pj4ol7lXiytDD-BTKe3kg", "alias": "las-santas-brooklyn-2", "name": "Las Santas", "image_url": "https://s3-media1.fl.yelpcdn.com/bphoto/m6bIlG5fhb3C-wbJr3-yzg/o.jpg", "is_closed": false, "url": "https://www.yelp.com/biz/las-santas-brooklyn-2?adjust_creative=a13dN0CY8XDTpMhWiRdWkw&utm_campaign=yelp_api_v3&utm_medium=api_v3_business_search&utm_source=a13dN0CY8XDTpMhWiRdWkw", "review_count": 198, "categories": [{"alias": "mexican", "title": "Mexican"}, {"alias": "cocktailbars", "title": "Cocktail Bars"}, {"alias": "breakfast_brunch", "title": "Breakfast & Brunch"}], "rating": 4.5, "coordinates": {"latitude": 40.6882, "longitude": -73.97953}, "transactions": ["pickup", "delivery"], "price": "$$", "location": {"address1": "572 Fulton St", "address2": null, "address3": "", "city": "Brooklyn", "zip_code": "11217", "country": "US", "state": "NY", "display_address": ["572 Fulton St", "Brooklyn, NY 11217"]}, "phone": "+17182225919", "display_phone": "(718) 222-5919", "distance": 2284.03042107995}, {"id": "RzKR9QcYP03EQ_8DxTxowg", "alias": "barrio-chino-new-york", "name": "Barrio Chino", "image_url": "https://s3-media3.fl.yelpcdn.com/bphoto/Gd6huFUDxp3I27bfo8c1gg/o.jpg", "is_closed": false, "url": "https://www.yelp.com/biz/barrio-chino-new-york?adjust_creative=a13dN0CY8XDTpMhWiRdWkw&utm_campaign=yelp_api_v3&utm_medium=api_v3_business_search&utm_source=a13dN0CY8XDTpMhWiRdWkw", "review_count": 1135, "categories": [{"alias": "mexican", "title": "Mexican"}, {"alias": "bars", "title": "Bars"}], "rating": 4.0, "coordinates": {"latitude": 40.718022, "longitude": -73.990026}, "transactions": ["pickup", "delivery"], "price": "$$", "location": {"address1": "253 Broome St", "address2": null, "address3": "", "city": "New York", "zip_code": "10002", "country": "US", "state": "NY", "display_address": ["253 Broome St", "New York, NY 10002"]}, "phone": "+12122286710", "display_phone": "(212) 228-6710", "distance": 1444.0205013853188}, {"id": "Zk8UgB9MDoIHWFYgAxNlIQ", "alias": "de-mole-brooklyn", "name": "De Mole", "image_url": "https://s3-media1.fl.yelpcdn.com/bphoto/pkungMeCPUImTcI3Sy4Q9w/o.jpg", "is_closed": false, "url": "https://www.yelp.com/biz/de-mole-brooklyn?adjust_creative=a13dN0CY8XDTpMhWiRdWkw&utm_campaign=yelp_api_v3&utm_medium=api_v3_business_search&utm_source=a13dN0CY8XDTpMhWiRdWkw", "review_count": 169, "categories": [{"alias": "mexican", "title": "Mexican"}, {"alias": "breakfast_brunch", "title": "Breakfast & Brunch"}], "rating": 4.5, "coordinates": {"latitude": 40.71377, "longitude": -73.95786}, "transactions": ["pickup", "delivery"], "location": {"address1": "2 Hope St", "address2": "", "address3": null, "city": "Brooklyn", "zip_code": "11211", "country": "US", "state": "NY", "display_address": ["2 Hope St", "Brooklyn, NY 11211"]}, "phone": "+13477213399", "display_phone": "(347) 721-3399", "distance": 3209.8393092317224}, {"id": "ci0-GO_iMb0NdTCUYWjocQ", "alias": "noche-de-margaritas-new-york", "name": "Noche De Margaritas", "image_url": "https://s3-media1.fl.yelpcdn.com/bphoto/102pyt27Z8aE8EjpnOqsqw/o.jpg", "is_closed": false, "url": "https://www.yelp.com/biz/noche-de-margaritas-new-york?adjust_creative=a13dN0CY8XDTpMhWiRdWkw&utm_campaign=yelp_api_v3&utm_medium=api_v3_business_search&utm_source=a13dN0CY8XDTpMhWiRdWkw", "review_count": 376, "categories": [{"alias": "mexican", "title": "Mexican"}], "rating": 4.0, "coordinates": {"latitude": 40.7801018, "longitude": -73.9497833}, "transactions": ["pickup", "delivery"], "price": "$$", "location": {"address1": "1726 2nd Ave", "address2": "", "address3": "", "city": "New York", "zip_code": "10128", "country": "US", "state": "NY", "display_address": ["1726 2nd Ave", "New York, NY 10128"]}, "phone": "+12122895195", "display_phone": "(212) 289-5195", "distance": 9112.579310933183}, {"id": "mhrLDFTxUzW2koRAzjlt5g", "alias": "chavelas-brooklyn-2", "name": "Chavela's", "image_url": "https://s3-media2.fl.yelpcdn.com/bphoto/55OytxTOhtMW-mGEcA6wjw/o.jpg", "is_closed": false, "url": "https://www.yelp.com/biz/chavelas-brooklyn-2?adjust_creative=a13dN0CY8XDTpMhWiRdWkw&utm_campaign=yelp_api_v3&utm_medium=api_v3_business_search&utm_source=a13dN0CY8XDTpMhWiRdWkw", "review_count": 1157, "categories": [{"alias": "mexican", "title": "Mexican"}, {"alias": "bars", "title": "Bars"}], "rating": 4.0, "coordinates": {"latitude": 40.673484, "longitude": -73.957267}, "transactions": ["pickup", "delivery"], "price": "$$", "location": {"address1": "736 Franklin Ave", "address2": null, "address3": "", "city": "Brooklyn", "zip_code": "11238", "country": "US", "state": "NY", "display_address": ["736 Franklin Ave", "Brooklyn, NY 11238"]}, "phone": "+17186223100", "display_phone": "(718) 622-3100", "distance": 4730.422567366242}, {"id": "pG-IkylRFOb-HlaD8NwvvQ", "alias": "la-loteria-new-york", "name": "La Loteria", "image_url": "https://s3-media1.fl.yelpcdn.com/bphoto/EyExqWPVoPrct0D_shxCHQ/o.jpg", "is_closed": false, "url": "https://www.yelp.com/biz/la-loteria-new-york?adjust_creative=a13dN0CY8XDTpMhWiRdWkw&utm_campaign=yelp_api_v3&utm_medium=api_v3_business_search&utm_source=a13dN0CY8XDTpMhWiRdWkw", "review_count": 341, "categories": [{"alias": "mexican", "title": "Mexican"}], "rating": 4.0, "coordinates": {"latitude": 40.7307865530978, "longitude": -74.0041882564488}, "transactions": ["pickup", "delivery"], "price": "$$", "location": {"address1": "29 7th Ave S", "address2": "", "address3": "", "city": "New York", "zip_code": "10014", "country": "US", "state": "NY", "display_address": ["29 7th Ave S", "New York, NY 10014"]}, "phone": "+12128589096", "display_phone": "(212) 858-9096", "distance": 2938.6730350789044}, {"id": "l0ZOGV9tohkpfHiZ-3XSRg", "alias": "friducha-brooklyn", "name": "Friducha", "image_url": "https://s3-media3.fl.yelpcdn.com/bphoto/t9WRQF4ujpZKYxr-l7cTww/o.jpg", "is_closed": false, "url": "https://www.yelp.com/biz/friducha-brooklyn?adjust_creative=a13dN0CY8XDTpMhWiRdWkw&utm_campaign=yelp_api_v3&utm_medium=api_v3_business_search&utm_source=a13dN0CY8XDTpMhWiRdWkw", "review_count": 103, "categories": [{"alias": "mexican", "title": "Mexican"}, {"alias": "bars", "title": "Bars"}], "rating": 4.0, "coordinates": {"latitude": 40.73152, "longitude": -73.95432}, "transactions": ["pickup", "delivery"], "price": "$$", "location": {"address1": "946 Manhattan Ave", "address2": "", "address3": null, "city": "Brooklyn", "zip_code": "11222", "country": "US", "state": "NY", "display_address": ["946 Manhattan Ave", "Brooklyn, NY 11222"]}, "phone": "+17183830026", "display_phone": "(718) 383-0026", "distance": 4453.762047935486}, {"id": "BK99GBVm_V6n_CTsc65mTw", "alias": "esqueleto-taqueria-brooklyn-new-york", "name": "Esqueleto Taqueria - Brooklyn", "image_url": "https://s3-media3.fl.yelpcdn.com/bphoto/pfrKAR480EcKgha5R9DxLA/o.jpg", "is_closed": false, "url": "https://www.yelp.com/biz/esqueleto-taqueria-brooklyn-new-york?adjust_creative=a13dN0CY8XDTpMhWiRdWkw&utm_campaign=yelp_api_v3&utm_medium=api_v3_business_search&utm_source=a13dN0CY8XDTpMhWiRdWkw", "review_count": 8, "categories": [{"alias": "mexican", "title": "Mexican"}], "rating": 4.5, "coordinates": {"latitude": 40.690561, "longitude": -73.994917}, "transactions": ["delivery"], "location": {"address1": "155 Atlantic Ave", "address2": null, "address3": "", "city": "New York", "zip_code": "11201", "country": "US", "state": "NY", "display_address": ["155 Atlantic Ave", "New York, NY 11201"]}, "phone": "+19292981531", "display_phone": "(929) 298-1531", "distance": 1644.1127558652634}, {"id": "XipQLDbyTl5tsLlyzAWzug", "alias": "jajaja-plantas-mexicana-new-york-2", "name": "Jajaja Plantas Mexicana", "image_url": "https://s3-media3.fl.yelpcdn.com/bphoto/OkWKXxOZBLJO7hRjOlIMig/o.jpg", "is_closed": false, "url": "https://www.yelp.com/biz/jajaja-plantas-mexicana-new-york-2?adjust_creative=a13dN0CY8XDTpMhWiRdWkw&utm_campaign=yelp_api_v3&utm_medium=api_v3_business_search&utm_source=a13dN0CY8XDTpMhWiRdWkw", "review_count": 1052, "categories": [{"alias": "mexican", "title": "Mexican"}, {"alias": "vegan", "title": "Vegan"}, {"alias": "bars", "title": "Bars"}], "rating": 4.5, "coordinates": {"latitude": 40.7141530317142, "longitude": -73.9904247969389}, "transactions": ["pickup", "delivery"], "price": "$$", "location": {"address1": "162 E Broadway", "address2": "", "address3": null, "city": "New York", "zip_code": "10002", "country": "US", "state": "NY", "display_address": ["162 E Broadway", "New York, NY 10002"]}, "phone": "+16468835453", "display_phone": "(646) 883-5453", "distance": 1021.7274074140097}, {"id": "8CTaeOtqr461Ah5yWcnCPw", "alias": "fatty-daddy-taco-brooklyn-2", "name": "Fatty Daddy Taco", "image_url": "https://s3-media3.fl.yelpcdn.com/bphoto/Aciaw9F7SRJjDYBB-IziUQ/o.jpg", "is_closed": false, "url": "https://www.yelp.com/biz/fatty-daddy-taco-brooklyn-2?adjust_creative=a13dN0CY8XDTpMhWiRdWkw&utm_campaign=yelp_api_v3&utm_medium=api_v3_business_search&utm_source=a13dN0CY8XDTpMhWiRdWkw", "review_count": 182, "categories": [{"alias": "mexican", "title": "Mexican"}], "rating": 4.0, "coordinates": {"latitude": 40.686578, "longitude": -73.990821}, "transactions": ["pickup", "delivery"], "price": "$$", "location": {"address1": "152 Smith St", "address2": null, "address3": "", "city": "Brooklyn", "zip_code": "11201", "country": "US", "state": "NY", "display_address": ["152 Smith St", "Brooklyn, NY 11201"]}, "phone": "+19292959361", "display_phone": "(929) 295-9361", "distance": 2115.8390976966602}, {"id": "kn9rgR4KlvyTTi-s76OIaQ", "alias": "toloache-82nd-new-york", "name": "Toloache 82nd", "image_url": "https://s3-media2.fl.yelpcdn.com/bphoto/ARnmJcj-zMtdgD97CePB3A/o.jpg", "is_closed": false, "url": "https://www.yelp.com/biz/toloache-82nd-new-york?adjust_creative=a13dN0CY8XDTpMhWiRdWkw&utm_campaign=yelp_api_v3&utm_medium=api_v3_business_search&utm_source=a13dN0CY8XDTpMhWiRdWkw", "review_count": 447, "categories": [{"alias": "mexican", "title": "Mexican"}, {"alias": "tex-mex", "title": "Tex-Mex"}], "rating": 4.0, "coordinates": {"latitude": 40.776483, "longitude": -73.956708}, "transactions": ["pickup", "delivery"], "price": "$$$", "location": {"address1": "166 E 82nd St", "address2": "", "address3": "", "city": "New York", "zip_code": "10028", "country": "US", "state": "NY", "display_address": ["166 E 82nd St", "New York, NY 10028"]}, "phone": "+12128614505", "display_phone": "(212) 861-4505", "distance": 8510.116970836734}, {"id": "MfbVI5reXLIIs8Cc2HwgQw", "alias": "breakroom-new-york", "name": "Breakroom", "image_url": "https://s3-media3.fl.yelpcdn.com/bphoto/6vv_E_iEX19gRg8M-zXFXw/o.jpg", "is_closed": false, "url": "https://www.yelp.com/biz/breakroom-new-york?adjust_creative=a13dN0CY8XDTpMhWiRdWkw&utm_campaign=yelp_api_v3&utm_medium=api_v3_business_search&utm_source=a13dN0CY8XDTpMhWiRdWkw", "review_count": 1612, "categories": [{"alias": "burgers", "title": "Burgers"}, {"alias": "tacos", "title": "Tacos"}], "rating": 4.5, "coordinates": {"latitude": 40.7166907225542, "longitude": -73.9999440120647}, "transactions": ["pickup", "delivery"], "price": "$$", "location": {"address1": "83 Baxter St", "address2": "", "address3": "", "city": "New York", "zip_code": "10013", "country": "US", "state": "NY", "display_address": ["83 Baxter St", "New York, NY 10013"]}, "phone": "+12122272802", "display_phone": "(212) 227-2802", "distance": 1338.114942586202}, {"id": "_M5FVY4hkcuU-ASdVZPfRQ", "alias": "tacos-el-bronco-brooklyn-2", "name": "Tacos El Bronco", "image_url": "https://s3-media3.fl.yelpcdn.com/bphoto/Lh8G4EkEtpmd1Fru7DMMdA/o.jpg", "is_closed": false, "url": "https://www.yelp.com/biz/tacos-el-bronco-brooklyn-2?adjust_creative=a13dN0CY8XDTpMhWiRdWkw&utm_campaign=yelp_api_v3&utm_medium=api_v3_business_search&utm_source=a13dN0CY8XDTpMhWiRdWkw", "review_count": 618, "categories": [{"alias": "mexican", "title": "Mexican"}, {"alias": "seafood", "title": "Seafood"}, {"alias": "cocktailbars", "title": "Cocktail Bars"}], "rating": 4.0, "coordinates": {"latitude": 40.65006, "longitude": -74.00915}, "transactions": ["delivery"], "price": "$", "location": {"address1": "4324 4th Ave", "address2": "", "address3": "", "city": "Brooklyn", "zip_code": "11220", "country": "US", "state": "NY", "display_address": ["4324 4th Ave", "Brooklyn, NY 11220"]}, "phone": "+17187882229", "display_phone": "(718) 788-2229", "distance": 6282.52410458184}, {"id": "vyKBwzRdNX4yiJDIFv37iw", "alias": "oxomoco-brooklyn-2", "name": "Oxomoco", "image_url": "https://s3-media2.fl.yelpcdn.com/bphoto/rZCgQsW2cOTMJDdAKIsryQ/o.jpg", "is_closed": false, "url": "https://www.yelp.com/biz/oxomoco-brooklyn-2?adjust_creative=a13dN0CY8XDTpMhWiRdWkw&utm_campaign=yelp_api_v3&utm_medium=api_v3_business_search&utm_source=a13dN0CY8XDTpMhWiRdWkw", "review_count": 391, "categories": [{"alias": "mexican", "title": "Mexican"}], "rating": 4.0, "coordinates": {"latitude": 40.7299099, "longitude": -73.95548}, "transactions": ["delivery"], "price": "$$$", "location": {"address1": "128 Greenpoint Ave", "address2": "", "address3": null, "city": "Brooklyn", "zip_code": "11222", "country": "US", "state": "NY", "display_address": ["128 Greenpoint Ave", "Brooklyn, NY 11222"]}, "phone": "+16466884180", "display_phone": "(646) 688-4180", "distance": 4247.863857495379}, {"id": "v8tuFxvNkKdZytWTn9BhMA", "alias": "fonda-chelsea-new-york-2", "name": "Fonda Chelsea", "image_url": "https://s3-media2.fl.yelpcdn.com/bphoto/mNyXXg9XcA-y_XpwBRKX3Q/o.jpg", "is_closed": false, "url": "https://www.yelp.com/biz/fonda-chelsea-new-york-2?adjust_creative=a13dN0CY8XDTpMhWiRdWkw&utm_campaign=yelp_api_v3&utm_medium=api_v3_business_search&utm_source=a13dN0CY8XDTpMhWiRdWkw", "review_count": 376, "categories": [{"alias": "mexican", "title": "Mexican"}], "rating": 3.5, "coordinates": {"latitude": 40.7455185879981, "longitude": -74.0021848849335}, "transactions": ["pickup", "delivery"], "price": "$$", "location": {"address1": "189 9th Ave", "address2": "", "address3": "", "city": "New York", "zip_code": "10011", "country": "US", "state": "NY", "display_address": ["189 9th Ave", "New York, NY 10011"]}, "phone": "+19175255252", "display_phone": "(917) 525-5252", "distance": 4505.340632387758}, {"id": "IfIyjm4SfORGYPbaAWST3g", "alias": "mexicue-new-york-6", "name": "Mexicue", "image_url": "https://s3-media1.fl.yelpcdn.com/bphoto/pGHHhm-MWI7EDzkQSy_ocg/o.jpg", "is_closed": false, "url": "https://www.yelp.com/biz/mexicue-new-york-6?adjust_creative=a13dN0CY8XDTpMhWiRdWkw&utm_campaign=yelp_api_v3&utm_medium=api_v3_business_search&utm_source=a13dN0CY8XDTpMhWiRdWkw", "review_count": 565, "categories": [{"alias": "mexican", "title": "Mexican"}], "rating": 4.0, "coordinates": {"latitude": 40.743617, "longitude": -73.987867}, "transactions": ["pickup", "delivery"], "price": "$$", "location": {"address1": "225 5th Ave", "address2": "", "address3": "", "city": "New York", "zip_code": "10010", "country": "US", "state": "NY", "display_address": ["225 5th Ave", "New York, NY 10010"]}, "phone": "+16469227289", "display_phone": "(646) 922-7289", "distance": 4278.949083000282}, {"id": "PqqnNrUtU7XTKQvUM4cyqQ", "alias": "bar-verde-new-york", "name": "Bar Verde", "image_url": "https://s3-media4.fl.yelpcdn.com/bphoto/XDbt28GMM-L2wQmxY9cG6g/o.jpg", "is_closed": false, "url": "https://www.yelp.com/biz/bar-verde-new-york?adjust_creative=a13dN0CY8XDTpMhWiRdWkw&utm_campaign=yelp_api_v3&utm_medium=api_v3_business_search&utm_source=a13dN0CY8XDTpMhWiRdWkw", "review_count": 333, "categories": [{"alias": "mexican", "title": "Mexican"}, {"alias": "vegan", "title": "Vegan"}, {"alias": "gluten_free", "title": "Gluten-Free"}], "rating": 4.5, "coordinates": {"latitude": 40.7260849061034, "longitude": -73.9897361397743}, "transactions": ["pickup", "delivery"], "price": "$$", "location": {"address1": "65 2nd Ave", "address2": "", "address3": null, "city": "New York", "zip_code": "10003", "country": "US", "state": "NY", "display_address": ["65 2nd Ave", "New York, NY 10003"]}, "phone": "+12127776965", "display_phone": "(212) 777-6965", "distance": 2326.9802691069017}, {"id": "9_CEU7Wmvmwlyvqr-PJD6w", "alias": "ofrenda-new-york", "name": "Ofrenda", "image_url": "https://s3-media2.fl.yelpcdn.com/bphoto/C2PxC5KF6dL5twB2BM42Aw/o.jpg", "is_closed": false, "url": "https://www.yelp.com/biz/ofrenda-new-york?adjust_creative=a13dN0CY8XDTpMhWiRdWkw&utm_campaign=yelp_api_v3&utm_medium=api_v3_business_search&utm_source=a13dN0CY8XDTpMhWiRdWkw", "review_count": 1013, "categories": [{"alias": "mexican", "title": "Mexican"}, {"alias": "breakfast_brunch", "title": "Breakfast & Brunch"}], "rating": 4.0, "coordinates": {"latitude": 40.73391, "longitude": -74.00242}, "transactions": ["pickup", "delivery"], "price": "$$", "location": {"address1": "113 7th Ave S", "address2": "", "address3": "", "city": "New York", "zip_code": "10014", "country": "US", "state": "NY", "display_address": ["113 7th Ave S", "New York, NY 10014"]}, "phone": "+12129242305", "display_phone": "(212) 924-2305", "distance": 3239.692567061365}, {"id": "PAJdNrD4HFBN16OAFeDx4A", "alias": "ponche-taqueria-and-cantina-new-york", "name": "Ponche Taqueria & Cantina", "image_url": "https://s3-media3.fl.yelpcdn.com/bphoto/Oz9i1TgKPQjjROUDPgQFgA/o.jpg", "is_closed": false, "url": "https://www.yelp.com/biz/ponche-taqueria-and-cantina-new-york?adjust_creative=a13dN0CY8XDTpMhWiRdWkw&utm_campaign=yelp_api_v3&utm_medium=api_v3_business_search&utm_source=a13dN0CY8XDTpMhWiRdWkw", "review_count": 525, "categories": [{"alias": "mexican", "title": "Mexican"}], "rating": 4.0, "coordinates": {"latitude": 40.76319, "longitude": -73.99045}, "transactions": ["delivery"], "price": "$$", "location": {"address1": "420 W 49th St", "address2": "", "address3": "", "city": "New York", "zip_code": "10019", "country": "US", "state": "NY", "display_address": ["420 W 49th St", "New York, NY 10019"]}, "phone": "+12125811235", "display_phone": "(212) 581-1235", "distance": 6423.643781162055}, {"id": "7-aFmvscXWT223jlWrOkWg", "alias": "mictlan-mexico-new-york", "name": "Mictlan Mexico", "image_url": "https://s3-media3.fl.yelpcdn.com/bphoto/5Eu4fVIFvDlIf147RnDUgw/o.jpg", "is_closed": false, "url": "https://www.yelp.com/biz/mictlan-mexico-new-york?adjust_creative=a13dN0CY8XDTpMhWiRdWkw&utm_campaign=yelp_api_v3&utm_medium=api_v3_business_search&utm_source=a13dN0CY8XDTpMhWiRdWkw", "review_count": 5, "categories": [{"alias": "mexican", "title": "Mexican"}], "rating": 5.0, "coordinates": {"latitude": 40.71524, "longitude": -73.99183}, "transactions": ["pickup", "delivery"], "location": {"address1": "17 Orchard St", "address2": "", "address3": null, "city": "New York", "zip_code": "10002", "country": "US", "state": "NY", "display_address": ["17 Orchard St", "New York, NY 10002"]}, "phone": "+19174095553", "display_phone": "(917) 409-5553", "distance": 1115.9580738579943}, {"id": "DTKKEogIt2wQm4UULYVGug", "alias": "mad-dog-and-beans-mexican-cantina-new-york-2", "name": "Mad Dog & Beans Mexican Cantina", "image_url": "https://s3-media2.fl.yelpcdn.com/bphoto/P_AnRsbxTllXQ-S6hWh-Xw/o.jpg", "is_closed": false, "url": "https://www.yelp.com/biz/mad-dog-and-beans-mexican-cantina-new-york-2?adjust_creative=a13dN0CY8XDTpMhWiRdWkw&utm_campaign=yelp_api_v3&utm_medium=api_v3_business_search&utm_source=a13dN0CY8XDTpMhWiRdWkw", "review_count": 987, "categories": [{"alias": "mexican", "title": "Mexican"}, {"alias": "bars", "title": "Bars"}], "rating": 3.5, "coordinates": {"latitude": 40.704168, "longitude": -74.010261}, "transactions": ["pickup", "delivery", "restaurant_reservation"], "price": "$$", "location": {"address1": "83 Pearl St", "address2": "", "address3": "", "city": "New York", "zip_code": "10004", "country": "US", "state": "NY", "display_address": ["83 Pearl St", "New York, NY 10004"]}, "phone": "+12122691177", "display_phone": "(212) 269-1177", "distance": 1353.464481258966}, {"id": "9fG8-RRh1rzuCKN2TmF-QQ", "alias": "5ive-spice-new-york-2", "name": "5ive Spice", "image_url": "https://s3-media1.fl.yelpcdn.com/bphoto/GNDdH26bue1yTqVJEawx6A/o.jpg", "is_closed": false, "url": "https://www.yelp.com/biz/5ive-spice-new-york-2?adjust_creative=a13dN0CY8XDTpMhWiRdWkw&utm_campaign=yelp_api_v3&utm_medium=api_v3_business_search&utm_source=a13dN0CY8XDTpMhWiRdWkw", "review_count": 409, "categories": [{"alias": "vietnamese", "title": "Vietnamese"}, {"alias": "tacos", "title": "Tacos"}, {"alias": "sandwiches", "title": "Sandwiches"}], "rating": 4.5, "coordinates": {"latitude": 40.722598, "longitude": -73.996272}, "transactions": ["pickup", "delivery"], "price": "$$", "location": {"address1": "227 Mulberry St", "address2": null, "address3": "", "city": "New York", "zip_code": "10012", "country": "US", "state": "NY", "display_address": ["227 Mulberry St", "New York, NY 10012"]}, "phone": "+19174092605", "display_phone": "(917) 409-2605", "distance": 1912.9622722449587}, {"id": "VCVCmflFEkQ0qRDQ805P2g", "alias": "xochitl-taqueria-brooklyn-3", "name": "Xochitl Taqueria", "image_url": "https://s3-media1.fl.yelpcdn.com/bphoto/-D_qepgBHAC8HRAfnnT5ug/o.jpg", "is_closed": false, "url": "https://www.yelp.com/biz/xochitl-taqueria-brooklyn-3?adjust_creative=a13dN0CY8XDTpMhWiRdWkw&utm_campaign=yelp_api_v3&utm_medium=api_v3_business_search&utm_source=a13dN0CY8XDTpMhWiRdWkw", "review_count": 18, "categories": [{"alias": "mexican", "title": "Mexican"}], "rating": 4.5, "coordinates": {"latitude": 40.685748, "longitude": -73.991367}, "transactions": ["pickup", "delivery"], "location": {"address1": "176 Smith St", "address2": "", "address3": null, "city": "Brooklyn", "zip_code": "11201", "country": "US", "state": "NY", "display_address": ["176 Smith St", "Brooklyn, NY 11201"]}, "phone": "+13475992226", "display_phone": "(347) 599-2226", "distance": 2205.3283994292356}, {"id": "FavssEgZjXFi2unEXePkVQ", "alias": "tacombi-bleecker-street-new-york", "name": "Tacombi - Bleecker Street", "image_url": "https://s3-media4.fl.yelpcdn.com/bphoto/zSzX3khnr-eDMFngm76D2w/o.jpg", "is_closed": false, "url": "https://www.yelp.com/biz/tacombi-bleecker-street-new-york?adjust_creative=a13dN0CY8XDTpMhWiRdWkw&utm_campaign=yelp_api_v3&utm_medium=api_v3_business_search&utm_source=a13dN0CY8XDTpMhWiRdWkw", "review_count": 410, "categories": [{"alias": "mexican", "title": "Mexican"}, {"alias": "juicebars", "title": "Juice Bars & Smoothies"}, {"alias": "sandwiches", "title": "Sandwiches"}], "rating": 4.0, "coordinates": {"latitude": 40.73112, "longitude": -74.00272}, "transactions": ["pickup", "delivery"], "price": "$$", "location": {"address1": "255 Bleecker St", "address2": "", "address3": "", "city": "New York", "zip_code": "10014", "country": "US", "state": "NY", "display_address": ["255 Bleecker St", "New York, NY 10014"]}, "phone": "+16469645984", "display_phone": "(646) 964-5984", "distance": 2940.5050096886853}, {"id": "SXWnyFNLCehVlJPRxk7gAg", "alias": "anejo-tribeca-new-york-3", "name": "Anejo Tribeca", "image_url": "https://s3-media2.fl.yelpcdn.com/bphoto/_fuWOS5dG8GL2oyWkn1L5A/o.jpg", "is_closed": false, "url": "https://www.yelp.com/biz/anejo-tribeca-new-york-3?adjust_creative=a13dN0CY8XDTpMhWiRdWkw&utm_campaign=yelp_api_v3&utm_medium=api_v3_business_search&utm_source=a13dN0CY8XDTpMhWiRdWkw", "review_count": 537, "categories": [{"alias": "mexican", "title": "Mexican"}, {"alias": "tapasmallplates", "title": "Tapas/Small Plates"}, {"alias": "tapas", "title": "Tapas Bars"}], "rating": 4.0, "coordinates": {"latitude": 40.7193829, "longitude": -74.004417}, "transactions": ["pickup", "delivery"], "price": "$$", "location": {"address1": "301 Church St", "address2": "", "address3": "", "city": "New York", "zip_code": "10013", "country": "US", "state": "NY", "display_address": ["301 Church St", "New York, NY 10013"]}, "phone": "+12129206270", "display_phone": "(212) 920-6270", "distance": 1769.2048160174595}, {"id": "FXgSgiLg6xgOO8zrG51mzg", "alias": "claro-brooklyn", "name": "Claro", "image_url": "https://s3-media4.fl.yelpcdn.com/bphoto/2_n3ndzp6cJ367V_VI-qmg/o.jpg", "is_closed": false, "url": "https://www.yelp.com/biz/claro-brooklyn?adjust_creative=a13dN0CY8XDTpMhWiRdWkw&utm_campaign=yelp_api_v3&utm_medium=api_v3_business_search&utm_source=a13dN0CY8XDTpMhWiRdWkw", "review_count": 241, "categories": [{"alias": "mexican", "title": "Mexican"}, {"alias": "newmexican", "title": "New Mexican Cuisine"}, {"alias": "cocktailbars", "title": "Cocktail Bars"}], "rating": 4.0, "coordinates": {"latitude": 40.6773587963142, "longitude": -73.9861984489446}, "transactions": ["pickup", "delivery"], "price": "$$", "location": {"address1": "284 3rd Ave", "address2": "", "address3": null, "city": "Brooklyn", "zip_code": "11215", "country": "US", "state": "NY", "display_address": ["284 3rd Ave", "Brooklyn, NY 11215"]}, "phone": "+13477213126", "display_phone": "(347) 721-3126", "distance": 3196.727237508255}, {"id": "Ck09FempamAKGSPsV_bX-A", "alias": "xixa-brooklyn", "name": "Xixa", "image_url": "https://s3-media2.fl.yelpcdn.com/bphoto/gP0Mr0TzIptA5-C2ryCNrQ/o.jpg", "is_closed": false, "url": "https://www.yelp.com/biz/xixa-brooklyn?adjust_creative=a13dN0CY8XDTpMhWiRdWkw&utm_campaign=yelp_api_v3&utm_medium=api_v3_business_search&utm_source=a13dN0CY8XDTpMhWiRdWkw", "review_count": 614, "categories": [{"alias": "mexican", "title": "Mexican"}, {"alias": "tapasmallplates", "title": "Tapas/Small Plates"}], "rating": 4.5, "coordinates": {"latitude": 40.710505, "longitude": -73.958466}, "transactions": ["pickup", "delivery"], "price": "$$$", "location": {"address1": "241 S 4th St", "address2": "", "address3": "", "city": "Brooklyn", "zip_code": "11211", "country": "US", "state": "NY", "display_address": ["241 S 4th St", "Brooklyn, NY 11211"]}, "phone": "+17183888860", "display_phone": "(718) 388-8860", "distance": 3068.0963514710497}, {"id": "95a04LtXLX6gePhPEwff9A", "alias": "amaranto-mexican-restaurant-brooklyn", "name": "Amaranto Mexican Restaurant", "image_url": "https://s3-media3.fl.yelpcdn.com/bphoto/A5ssu96ohGe0zvE9aUyhvg/o.jpg", "is_closed": false, "url": "https://www.yelp.com/biz/amaranto-mexican-restaurant-brooklyn?adjust_creative=a13dN0CY8XDTpMhWiRdWkw&utm_campaign=yelp_api_v3&utm_medium=api_v3_business_search&utm_source=a13dN0CY8XDTpMhWiRdWkw", "review_count": 365, "categories": [{"alias": "mexican", "title": "Mexican"}], "rating": 4.5, "coordinates": {"latitude": 40.703111, "longitude": -73.921892}, "transactions": ["pickup", "delivery"], "price": "$$", "location": {"address1": "887 Hart St", "address2": "", "address3": "", "city": "Brooklyn", "zip_code": "11237", "country": "US", "state": "NY", "display_address": ["887 Hart St", "Brooklyn, NY 11237"]}, "phone": "+17185766001", "display_phone": "(718) 576-6001", "distance": 6108.5884083398105}, {"id": "ry7XCoXXxS0DxRmzZLFybw", "alias": "taqueria-gramercy-new-york", "name": "Taqueria Gramercy", "image_url": "https://s3-media4.fl.yelpcdn.com/bphoto/XayLwDU6hCJKRXwgfGXx1A/o.jpg", "is_closed": false, "url": "https://www.yelp.com/biz/taqueria-gramercy-new-york?adjust_creative=a13dN0CY8XDTpMhWiRdWkw&utm_campaign=yelp_api_v3&utm_medium=api_v3_business_search&utm_source=a13dN0CY8XDTpMhWiRdWkw", "review_count": 112, "categories": [{"alias": "bars", "title": "Bars"}, {"alias": "tacos", "title": "Tacos"}], "rating": 4.0, "coordinates": {"latitude": 40.7363, "longitude": -73.98531}, "transactions": ["pickup", "delivery"], "location": {"address1": "218 3rd Ave", "address2": "", "address3": null, "city": "New York", "zip_code": "10003", "country": "US", "state": "NY", "display_address": ["218 3rd Ave", "New York, NY 10003"]}, "phone": "+16463706435", "display_phone": "(646) 370-6435", "distance": 3512.2874354237915}, {"id": "mmAlHhnTDXIohPC3wfl0hQ", "alias": "mesa-coyoacan-brooklyn", "name": "Mesa Coyoacan", "image_url": "https://s3-media2.fl.yelpcdn.com/bphoto/cUN1qJ9Dwi2d3MpDL0N7AQ/o.jpg", "is_closed": false, "url": "https://www.yelp.com/biz/mesa-coyoacan-brooklyn?adjust_creative=a13dN0CY8XDTpMhWiRdWkw&utm_campaign=yelp_api_v3&utm_medium=api_v3_business_search&utm_source=a13dN0CY8XDTpMhWiRdWkw", "review_count": 791, "categories": [{"alias": "mexican", "title": "Mexican"}, {"alias": "bars", "title": "Bars"}], "rating": 4.0, "coordinates": {"latitude": 40.715528, "longitude": -73.944273}, "transactions": ["pickup", "delivery"], "price": "$$", "location": {"address1": "372 Graham Ave", "address2": "", "address3": "", "city": "Brooklyn", "zip_code": "11211", "country": "US", "state": "NY", "display_address": ["372 Graham Ave", "Brooklyn, NY 11211"]}, "phone": "+17187828171", "display_phone": "(718) 782-8171", "distance": 4359.095637089325}, {"id": "R5jpETY0OshPn-AeJjs0fA", "alias": "dos-caminos-new-york-4", "name": "Dos Caminos", "image_url": "https://s3-media3.fl.yelpcdn.com/bphoto/0Q_W1gcSGPL93_Nl2I9MSQ/o.jpg", "is_closed": false, "url": "https://www.yelp.com/biz/dos-caminos-new-york-4?adjust_creative=a13dN0CY8XDTpMhWiRdWkw&utm_campaign=yelp_api_v3&utm_medium=api_v3_business_search&utm_source=a13dN0CY8XDTpMhWiRdWkw", "review_count": 1134, "categories": [{"alias": "mexican", "title": "Mexican"}, {"alias": "bars", "title": "Bars"}], "rating": 3.5, "coordinates": {"latitude": 40.7266452, "longitude": -73.9999024}, "transactions": ["pickup", "delivery"], "price": "$$", "location": {"address1": "475 W Broadway", "address2": "", "address3": "", "city": "New York", "zip_code": "10012", "country": "US", "state": "NY", "display_address": ["475 W Broadway", "New York, NY 10012"]}, "phone": "+12122774300", "display_phone": "(212) 277-4300", "distance": 2404.301695404806}, {"id": "-SYHh9DWvYuBZxkA4gfzHg", "alias": "calabrijes-margaritas-and-tacos-brooklyn", "name": "Calabrije's Margaritas & Tacos", "image_url": "https://s3-media2.fl.yelpcdn.com/bphoto/wQF-rw-lfJ1rKVhJxXhbSQ/o.jpg", "is_closed": false, "url": "https://www.yelp.com/biz/calabrijes-margaritas-and-tacos-brooklyn?adjust_creative=a13dN0CY8XDTpMhWiRdWkw&utm_campaign=yelp_api_v3&utm_medium=api_v3_business_search&utm_source=a13dN0CY8XDTpMhWiRdWkw", "review_count": 136, "categories": [{"alias": "tacos", "title": "Tacos"}, {"alias": "cocktailbars", "title": "Cocktail Bars"}], "rating": 4.0, "coordinates": {"latitude": 40.7055429619569, "longitude": -73.9225539192783}, "transactions": ["pickup", "delivery"], "price": "$$", "location": {"address1": "234 Starr St", "address2": "", "address3": null, "city": "Brooklyn", "zip_code": "11237", "country": "US", "state": "NY", "display_address": ["234 Starr St", "Brooklyn, NY 11237"]}, "phone": "+17184842110", "display_phone": "(718) 484-2110", "distance": 6047.176236994416}, {"id": "Nnuz_Ic0IdWOUbl64r4Hkg", "alias": "fonda-park-slope-brooklyn", "name": "Fonda Park Slope", "image_url": "https://s3-media1.fl.yelpcdn.com/bphoto/qVcynT6bkKccqVhvLEUXaQ/o.jpg", "is_closed": false, "url": "https://www.yelp.com/biz/fonda-park-slope-brooklyn?adjust_creative=a13dN0CY8XDTpMhWiRdWkw&utm_campaign=yelp_api_v3&utm_medium=api_v3_business_search&utm_source=a13dN0CY8XDTpMhWiRdWkw", "review_count": 846, "categories": [{"alias": "mexican", "title": "Mexican"}, {"alias": "salad", "title": "Salad"}, {"alias": "breakfast_brunch", "title": "Breakfast & Brunch"}], "rating": 4.0, "coordinates": {"latitude": 40.663631439209, "longitude": -73.9846343994141}, "transactions": ["pickup", "delivery"], "price": "$$", "location": {"address1": "434 7th Ave", "address2": "", "address3": "", "city": "Brooklyn", "zip_code": "11215", "country": "US", "state": "NY", "display_address": ["434 7th Ave", "Brooklyn, NY 11215"]}, "phone": "+17183693144", "display_phone": "(718) 369-3144", "distance": 4721.62152084486}, {"id": "xN4yKQMzo3PIoQlFamUOLQ", "alias": "la-esquina-midtown-new-york-2", "name": "La Esquina - Midtown", "image_url": "https://s3-media3.fl.yelpcdn.com/bphoto/1qOuQs_ldEtU9kAs4XZJlw/o.jpg", "is_closed": false, "url": "https://www.yelp.com/biz/la-esquina-midtown-new-york-2?adjust_creative=a13dN0CY8XDTpMhWiRdWkw&utm_campaign=yelp_api_v3&utm_medium=api_v3_business_search&utm_source=a13dN0CY8XDTpMhWiRdWkw", "review_count": 223, "categories": [{"alias": "mexican", "title": "Mexican"}, {"alias": "latin", "title": "Latin American"}], "rating": 4.0, "coordinates": {"latitude": 40.7642986928764, "longitude": -73.9814604957066}, "transactions": ["delivery"], "price": "$$", "location": {"address1": "200 W 55th St", "address2": "", "address3": null, "city": "New York", "zip_code": "10019", "country": "US", "state": "NY", "display_address": ["200 W 55th St", "New York, NY 10019"]}, "phone": "+16466137100", "display_phone": "(646) 613-7100", "distance": 6632.95963056546}, {"id": "jnEv25Y2DosTq2sNnvmC9g", "alias": "los-tacos-no-1-new-york", "name": "Los Tacos No.1", "image_url": "https://s3-media2.fl.yelpcdn.com/bphoto/FU44TYl3PzXsE06G4W5aog/o.jpg", "is_closed": false, "url": "https://www.yelp.com/biz/los-tacos-no-1-new-york?adjust_creative=a13dN0CY8XDTpMhWiRdWkw&utm_campaign=yelp_api_v3&utm_medium=api_v3_business_search&utm_source=a13dN0CY8XDTpMhWiRdWkw", "review_count": 3217, "categories": [{"alias": "tacos", "title": "Tacos"}], "rating": 4.5, "coordinates": {"latitude": 40.7425547, "longitude": -74.0060838}, "transactions": ["delivery"], "price": "$", "location": {"address1": "75 9th Ave", "address2": "", "address3": "", "city": "New York", "zip_code": "10011", "country": "US", "state": "NY", "display_address": ["75 9th Ave", "New York, NY 10011"]}, "phone": "", "display_phone": "", "distance": 4244.358699250552}, {"id": "ub2VfE7SRLJABAClzGZp3A", "alias": "tacombi-flatiron-new-york-3", "name": "Tacombi - Flatiron", "image_url": "https://s3-media1.fl.yelpcdn.com/bphoto/KpC1h8QFhBFXJfENxuZ6ZQ/o.jpg", "is_closed": false, "url": "https://www.yelp.com/biz/tacombi-flatiron-new-york-3?adjust_creative=a13dN0CY8XDTpMhWiRdWkw&utm_campaign=yelp_api_v3&utm_medium=api_v3_business_search&utm_source=a13dN0CY8XDTpMhWiRdWkw", "review_count": 687, "categories": [{"alias": "mexican", "title": "Mexican"}], "rating": 4.0, "coordinates": {"latitude": 40.742807, "longitude": -73.991138}, "transactions": ["pickup", "delivery"], "price": "$$", "location": {"address1": "30 W 24th St", "address2": "", "address3": "", "city": "New York", "zip_code": "10010", "country": "US", "state": "NY", "display_address": ["30 W 24th St", "New York, NY 10010"]}, "phone": "+12122423491", "display_phone": "(212) 242-3491", "distance": 4162.975211237086}, {"id": "CfOBb6NU2awo8xclJpKU3g", "alias": "chela-modern-mexican-brooklyn", "name": "Chela Modern Mexican", "image_url": "https://s3-media1.fl.yelpcdn.com/bphoto/GNC6ZA5HE-Nn92Qa5eSegg/o.jpg", "is_closed": false, "url": "https://www.yelp.com/biz/chela-modern-mexican-brooklyn?adjust_creative=a13dN0CY8XDTpMhWiRdWkw&utm_campaign=yelp_api_v3&utm_medium=api_v3_business_search&utm_source=a13dN0CY8XDTpMhWiRdWkw", "review_count": 553, "categories": [{"alias": "mexican", "title": "Mexican"}, {"alias": "cocktailbars", "title": "Cocktail Bars"}, {"alias": "breakfast_brunch", "title": "Breakfast & Brunch"}], "rating": 4.5, "coordinates": {"latitude": 40.67032, "longitude": -73.98569}, "transactions": ["pickup", "delivery"], "price": "$$", "location": {"address1": "408 5th Ave", "address2": "", "address3": null, "city": "Brooklyn", "zip_code": "11215", "country": "US", "state": "NY", "display_address": ["408 5th Ave", "Brooklyn, NY 11215"]}, "phone": "+17187011891", "display_phone": "(718) 701-1891", "distance": 3974.180451925868}, {"id": "zxdsVR_hHUzhBFfus4yd7A", "alias": "dos-caminos-new-york-3", "name": "Dos Caminos", "image_url": "https://s3-media1.fl.yelpcdn.com/bphoto/OjqowmWExanMFsEQPVws9g/o.jpg", "is_closed": false, "url": "https://www.yelp.com/biz/dos-caminos-new-york-3?adjust_creative=a13dN0CY8XDTpMhWiRdWkw&utm_campaign=yelp_api_v3&utm_medium=api_v3_business_search&utm_source=a13dN0CY8XDTpMhWiRdWkw", "review_count": 1083, "categories": [{"alias": "mexican", "title": "Mexican"}, {"alias": "bars", "title": "Bars"}], "rating": 3.0, "coordinates": {"latitude": 40.7404330511257, "longitude": -74.0054753422738}, "transactions": ["pickup", "delivery"], "price": "$$", "location": {"address1": "675 Hudson St", "address2": "", "address3": "", "city": "New York", "zip_code": "10014", "country": "US", "state": "NY", "display_address": ["675 Hudson St", "New York, NY 10014"]}, "phone": "+12126992400", "display_phone": "(212) 699-2400", "distance": 4003.00158127486}, {"id": "2u8T56A4qu-MjeuT-v7s_g", "alias": "casa-bocado-new-york", "name": "Casa Bocado", "image_url": "https://s3-media4.fl.yelpcdn.com/bphoto/uJUNdYuKR3A2DVUGnn21dg/o.jpg", "is_closed": false, "url": "https://www.yelp.com/biz/casa-bocado-new-york?adjust_creative=a13dN0CY8XDTpMhWiRdWkw&utm_campaign=yelp_api_v3&utm_medium=api_v3_business_search&utm_source=a13dN0CY8XDTpMhWiRdWkw", "review_count": 89, "categories": [{"alias": "mexican", "title": "Mexican"}, {"alias": "latin", "title": "Latin American"}, {"alias": "cocktailbars", "title": "Cocktail Bars"}], "rating": 4.5, "coordinates": {"latitude": 40.71958, "longitude": -73.99484}, "transactions": ["delivery"], "location": {"address1": "341 Broome St", "address2": null, "address3": "", "city": "New York", "zip_code": "10013", "country": "US", "state": "NY", "display_address": ["341 Broome St", "New York, NY 10013"]}, "phone": "+12122047502", "display_phone": "(212) 204-7502", "distance": 1562.956603306403}, {"id": "4UxmxAqehEIh7fYrzUEA7A", "alias": "tacovision-new-york", "name": "Tacovision", "image_url": "https://s3-media4.fl.yelpcdn.com/bphoto/RrlJH2x3tsoh-JhnfO5gzA/o.jpg", "is_closed": false, "url": "https://www.yelp.com/biz/tacovision-new-york?adjust_creative=a13dN0CY8XDTpMhWiRdWkw&utm_campaign=yelp_api_v3&utm_medium=api_v3_business_search&utm_source=a13dN0CY8XDTpMhWiRdWkw", "review_count": 240, "categories": [{"alias": "tacos", "title": "Tacos"}, {"alias": "tapasmallplates", "title": "Tapas/Small Plates"}], "rating": 4.0, "coordinates": {"latitude": 40.7568200311153, "longitude": -73.9678929001093}, "transactions": ["pickup", "delivery"], "price": "$$", "location": {"address1": "244 E 53rd St", "address2": "", "address3": null, "city": "New York", "zip_code": "10004", "country": "US", "state": "NY", "display_address": ["244 E 53rd St", "New York, NY 10004"]}, "phone": "+16469211990", "display_phone": "(646) 921-1990", "distance": 6130.488021640037}, {"id": "7bD22UAtH56ikWYslOSIQg", "alias": "calexico-upper-east-side-new-york-2", "name": "Calexico - Upper East Side", "image_url": "https://s3-media3.fl.yelpcdn.com/bphoto/If17MxTRNkk2CbzlFkW_8g/o.jpg", "is_closed": false, "url": "https://www.yelp.com/biz/calexico-upper-east-side-new-york-2?adjust_creative=a13dN0CY8XDTpMhWiRdWkw&utm_campaign=yelp_api_v3&utm_medium=api_v3_business_search&utm_source=a13dN0CY8XDTpMhWiRdWkw", "review_count": 737, "categories": [{"alias": "salad", "title": "Salad"}, {"alias": "breakfast_brunch", "title": "Breakfast & Brunch"}, {"alias": "tacos", "title": "Tacos"}], "rating": 4.0, "coordinates": {"latitude": 40.77259, "longitude": -73.95588}, "transactions": ["pickup", "delivery"], "price": "$$", "location": {"address1": "1491 2nd Ave", "address2": "", "address3": "", "city": "New York", "zip_code": "10075", "country": "US", "state": "NY", "display_address": ["1491 2nd Ave", "New York, NY 10075"]}, "phone": "+13479675955", "display_phone": "(347) 967-5955", "distance": 8138.257554066013}, {"id": "uLWp1QR_W2WJImMnB706hg", "alias": "mexicue-new-york-10", "name": "Mexicue", "image_url": "https://s3-media2.fl.yelpcdn.com/bphoto/qrJYY_rxp9vwfTjAdw4NVA/o.jpg", "is_closed": false, "url": "https://www.yelp.com/biz/mexicue-new-york-10?adjust_creative=a13dN0CY8XDTpMhWiRdWkw&utm_campaign=yelp_api_v3&utm_medium=api_v3_business_search&utm_source=a13dN0CY8XDTpMhWiRdWkw", "review_count": 459, "categories": [{"alias": "mexican", "title": "Mexican"}], "rating": 4.0, "coordinates": {"latitude": 40.74202, "longitude": -74.00046}, "transactions": ["pickup", "delivery"], "price": "$$", "location": {"address1": "160 8th Ave", "address2": "", "address3": null, "city": "New York", "zip_code": "10011", "country": "US", "state": "NY", "display_address": ["160 8th Ave", "New York, NY 10011"]}, "phone": "+16466493133", "display_phone": "(646) 649-3133", "distance": 4103.57785075036}, {"id": "nrwOQSXoRXfAYhkdjiUk8g", "alias": "toro-loco-new-york", "name": "Toro Loco", "image_url": "https://s3-media2.fl.yelpcdn.com/bphoto/uBhe_gNq53jqkdtPmBM_Lw/o.jpg", "is_closed": false, "url": "https://www.yelp.com/biz/toro-loco-new-york?adjust_creative=a13dN0CY8XDTpMhWiRdWkw&utm_campaign=yelp_api_v3&utm_medium=api_v3_business_search&utm_source=a13dN0CY8XDTpMhWiRdWkw", "review_count": 334, "categories": [{"alias": "cocktailbars", "title": "Cocktail Bars"}, {"alias": "mexican", "title": "Mexican"}, {"alias": "breakfast_brunch", "title": "Breakfast & Brunch"}], "rating": 4.0, "coordinates": {"latitude": 40.70421, "longitude": -74.01208}, "transactions": ["pickup", "delivery"], "price": "$$", "location": {"address1": "15 Stone St", "address2": null, "address3": "", "city": "New York", "zip_code": "10004", "country": "US", "state": "NY", "display_address": ["15 Stone St", "New York, NY 10004"]}, "phone": "+19172620444", "display_phone": "(917) 262-0444", "distance": 1509.416353803401}, {"id": "4zBGXDXg9DzK0IROwCUeFg", "alias": "cowgirl-seahorse-new-york-2", "name": "Cowgirl Seahorse", "image_url": "https://s3-media4.fl.yelpcdn.com/bphoto/xpMlQYybUIHmJNXvxRQSbw/o.jpg", "is_closed": false, "url": "https://www.yelp.com/biz/cowgirl-seahorse-new-york-2?adjust_creative=a13dN0CY8XDTpMhWiRdWkw&utm_campaign=yelp_api_v3&utm_medium=api_v3_business_search&utm_source=a13dN0CY8XDTpMhWiRdWkw", "review_count": 611, "categories": [{"alias": "tex-mex", "title": "Tex-Mex"}, {"alias": "seafood", "title": "Seafood"}, {"alias": "southern", "title": "Southern"}], "rating": 4.0, "coordinates": {"latitude": 40.7081358, "longitude": -74.0004532}, "transactions": ["pickup", "delivery"], "price": "$$", "location": {"address1": "259 Front St", "address2": "", "address3": "", "city": "New York", "zip_code": "10038", "country": "US", "state": "NY", "display_address": ["259 Front St", "New York, NY 10038"]}, "phone": "+12126087873", "display_phone": "(212) 608-7873", "distance": 599.2822281843487}, {"id": "xGNzAsakHgbbl9fwgSoiUg", "alias": "kahlo-new-york", "name": "Kahlo", "image_url": "https://s3-media3.fl.yelpcdn.com/bphoto/EhIU0Y_tiR3ScJpOaBmJOQ/o.jpg", "is_closed": false, "url": "https://www.yelp.com/biz/kahlo-new-york?adjust_creative=a13dN0CY8XDTpMhWiRdWkw&utm_campaign=yelp_api_v3&utm_medium=api_v3_business_search&utm_source=a13dN0CY8XDTpMhWiRdWkw", "review_count": 160, "categories": [{"alias": "mexican", "title": "Mexican"}], "rating": 4.5, "coordinates": {"latitude": 40.752092, "longitude": -74.0026757}, "transactions": ["pickup", "delivery"], "price": "$$$", "location": {"address1": "525 West 29th St", "address2": "", "address3": "", "city": "New York", "zip_code": "10001", "country": "US", "state": "NY", "display_address": ["525 West 29th St", "New York, NY 10001"]}, "phone": "+12122560083", "display_phone": "(212) 256-0083", "distance": 5234.792286716743}], "total": 240, "region": {"center": {"longitude": -73.99429321289062, "latitude": 40.70544486444615}}}