{"businesses": [{"id": "zj8Lq1T8KIC5zwFief15jg", "alias": "prince-street-pizza-new-york-2", "name": "Prince Street Pizza", "image_url": "https://s3-media3.fl.yelpcdn.com/bphoto/ZAukOyv530w4KjOHC5YY1w/o.jpg", "is_closed": false, "url": "https://www.yelp.com/biz/prince-street-pizza-new-york-2?adjust_creative=a13dN0CY8XDTpMhWiRdWkw&utm_campaign=yelp_api_v3&utm_medium=api_v3_business_search&utm_source=a13dN0CY8XDTpMhWiRdWkw", "review_count": 4004, "categories": [{"alias": "pizza", "title": "Pizza"}, {"alias": "italian", "title": "Italian"}], "rating": 4.5, "coordinates": {"latitude": 40.72308755605564, "longitude": -73.99453001177575}, "transactions": ["pickup", "delivery"], "price": "$", "location": {"address1": "27 Prince St", "address2": null, "address3": "", "city": "New York", "zip_code": "10012", "country": "US", "state": "NY", "display_address": ["27 Prince St", "New York, NY 10012"]}, "phone": "+12129664100", "display_phone": "(212) 966-4100", "distance": 1961.8771417367063}, {"id": "ysqgdbSrezXgVwER2kQWKA", "alias": "julianas-brooklyn-3", "name": "Juliana's", "image_url": "https://s3-media2.fl.yelpcdn.com/bphoto/clscwgOF9_Ecq-Rwsq7jyQ/o.jpg", "is_closed": false, "url": "https://www.yelp.com/biz/julianas-brooklyn-3?adjust_creative=a13dN0CY8XDTpMhWiRdWkw&utm_campaign=yelp_api_v3&utm_medium=api_v3_business_search&utm_source=a13dN0CY8XDTpMhWiRdWkw", "review_count": 2353, "categories": [{"alias": "pizza", "title": "Pizza"}], "rating": 4.5, "coordinates": {"latitude": 40.70274718768062, "longitude": -73.99343490196397}, "transactions": ["delivery"], "price": "$$", "location": {"address1": "19 Old Fulton St", "address2": "", "address3": "", "city": "Brooklyn", "zip_code": "11201", "country": "US", "state": "NY", "display_address": ["19 Old Fulton St", "Brooklyn, NY 11201"]}, "phone": "+17185966700", "display_phone": "(718) 596-6700", "distance": 308.56984360837544}, {"id": "WG639VkTjmK5dzydd1BBJA", "alias": "rubirosa-new-york-2", "name": "Rubirosa", "image_url": "https://s3-media4.fl.yelpcdn.com/bphoto/LuSzR8cpVQRofXOT_bMi1A/o.jpg", "is_closed": false, "url": "https://www.yelp.com/biz/rubirosa-new-york-2?adjust_creative=a13dN0CY8XDTpMhWiRdWkw&utm_campaign=yelp_api_v3&utm_medium=api_v3_business_search&utm_source=a13dN0CY8XDTpMhWiRdWkw", "review_count": 2459, "categories": [{"alias": "italian", "title": "Italian"}, {"alias": "pizza", "title": "Pizza"}], "rating": 4.5, "coordinates": {"latitude": 40.722766, "longitude": -73.996233}, "transactions": ["pickup", "delivery"], "price": "$$", "location": {"address1": "235 Mulberry St", "address2": "", "address3": "", "city": "New York", "zip_code": "10012", "country": "US", "state": "NY", "display_address": ["235 Mulberry St", "New York, NY 10012"]}, "phone": "+12129650500", "display_phone": "(212) 965-0500", "distance": 1932.9467701334759}, {"id": "WIhm0W9197f_rRtDziq5qQ", "alias": "lombardis-pizza-new-york-4", "name": "Lombardi's Pizza", "image_url": "https://s3-media1.fl.yelpcdn.com/bphoto/UZ6V_hobp1KpYDPOHNoCKw/o.jpg", "is_closed": false, "url": "https://www.yelp.com/biz/lombardis-pizza-new-york-4?adjust_creative=a13dN0CY8XDTpMhWiRdWkw&utm_campaign=yelp_api_v3&utm_medium=api_v3_business_search&utm_source=a13dN0CY8XDTpMhWiRdWkw", "review_count": 6195, "categories": [{"alias": "pizza", "title": "Pizza"}], "rating": 4.0, "coordinates": {"latitude": 40.7215934960083, "longitude": -73.9955956044561}, "transactions": ["pickup", "delivery"], "price": "$$", "location": {"address1": "32 Spring St", "address2": "", "address3": "", "city": "New York", "zip_code": "10012", "country": "US", "state": "NY", "display_address": ["32 Spring St", "New York, NY 10012"]}, "phone": "+12129417994", "display_phone": "(212) 941-7994", "distance": 1798.9959778083735}, {"id": "Q9F2ocrmYuGt1yn3M7MOBw", "alias": "lucali-brooklyn-3", "name": "Lucali", "image_url": "https://s3-media3.fl.yelpcdn.com/bphoto/Yl_eZ_DW_iaumnU-pfSoaw/o.jpg", "is_closed": false, "url": "https://www.yelp.com/biz/lucali-brooklyn-3?adjust_creative=a13dN0CY8XDTpMhWiRdWkw&utm_campaign=yelp_api_v3&utm_medium=api_v3_business_search&utm_source=a13dN0CY8XDTpMhWiRdWkw", "review_count": 1722, "categories": [{"alias": "pizza", "title": "Pizza"}], "rating": 4.0, "coordinates": {"latitude": 40.6818, "longitude": -74.00024}, "transactions": ["delivery"], "price": "$$", "location": {"address1": "575 Henry St", "address2": null, "address3": "", "city": "Brooklyn", "zip_code": "11231", "country": "US", "state": "NY", "display_address": ["575 Henry St", "Brooklyn, NY 11231"]}, "phone": "+17188584086", "display_phone": "(718) 858-4086", "distance": 2674.849860473569}, {"id": "FhXjAc6nKLf414KxYujUHw", "alias": "robertas-brooklyn-2", "name": "Roberta's", "image_url": "https://s3-media4.fl.yelpcdn.com/bphoto/8fY9fA5TtCF0ebdTNph9mQ/o.jpg", "is_closed": false, "url": "https://www.yelp.com/biz/robertas-brooklyn-2?adjust_creative=a13dN0CY8XDTpMhWiRdWkw&utm_campaign=yelp_api_v3&utm_medium=api_v3_business_search&utm_source=a13dN0CY8XDTpMhWiRdWkw", "review_count": 3014, "categories": [{"alias": "pizza", "title": "Pizza"}, {"alias": "italian", "title": "Italian"}], "rating": 4.0, "coordinates": {"latitude": 40.70493, "longitude": -73.93399}, "transactions": ["pickup", "delivery"], "price": "$$", "location": {"address1": "261 Moore St", "address2": "", "address3": "", "city": "Brooklyn", "zip_code": "11206", "country": "US", "state": "NY", "display_address": ["261 Moore St", "Brooklyn, NY 11206"]}, "phone": "+17184171118", "display_phone": "(718) 417-1118", "distance": 5083.5233118395545}, {"id": "uc5qQMzs96rzjK27epDCug", "alias": "joes-pizza-new-york-4", "name": "Joe's Pizza", "image_url": "https://s3-media4.fl.yelpcdn.com/bphoto/1TvTRG9HFmEGaTSBMcUBhA/o.jpg", "is_closed": false, "url": "https://www.yelp.com/biz/joes-pizza-new-york-4?adjust_creative=a13dN0CY8XDTpMhWiRdWkw&utm_campaign=yelp_api_v3&utm_medium=api_v3_business_search&utm_source=a13dN0CY8XDTpMhWiRdWkw", "review_count": 2684, "categories": [{"alias": "pizza", "title": "Pizza"}], "rating": 4.0, "coordinates": {"latitude": 40.73060076, "longitude": -74.00215997}, "transactions": ["delivery"], "price": "$", "location": {"address1": "7 Carmine St", "address2": "", "address3": "", "city": "New York", "zip_code": "10014", "country": "US", "state": "NY", "display_address": ["7 Carmine St", "New York, NY 10014"]}, "phone": "+12123661182", "display_phone": "(212) 366-1182", "distance": 2874.702513677348}, {"id": "0UdC0VYX6aAvLiOcpR4MVQ", "alias": "joes-pizza-new-york-7", "name": "Joe's Pizza", "image_url": "https://s3-media3.fl.yelpcdn.com/bphoto/BTCcvlqxlp2MOeK_rHa8lQ/o.jpg", "is_closed": false, "url": "https://www.yelp.com/biz/joes-pizza-new-york-7?adjust_creative=a13dN0CY8XDTpMhWiRdWkw&utm_campaign=yelp_api_v3&utm_medium=api_v3_business_search&utm_source=a13dN0CY8XDTpMhWiRdWkw", "review_count": 947, "categories": [{"alias": "pizza", "title": "Pizza"}], "rating": 4.0, "coordinates": {"latitude": 40.73331, "longitude": -73.98763}, "transactions": ["pickup", "delivery"], "price": "$", "location": {"address1": "150 E 14th St", "address2": "", "address3": "", "city": "New York", "zip_code": "10003", "country": "US", "state": "NY", "display_address": ["150 E 14th St", "New York, NY 10003"]}, "phone": "+12123889474", "display_phone": "(212) 388-9474", "distance": 3147.1329123382493}, {"id": "2ggi1luerd3Mf_C82JvCYg", "alias": "grimaldis-pizzeria-brooklyn-4", "name": "Grimaldi's Pizzeria", "image_url": "https://s3-media2.fl.yelpcdn.com/bphoto/KnocNRTl04953MdDXH9y7Q/o.jpg", "is_closed": false, "url": "https://www.yelp.com/biz/grimaldis-pizzeria-brooklyn-4?adjust_creative=a13dN0CY8XDTpMhWiRdWkw&utm_campaign=yelp_api_v3&utm_medium=api_v3_business_search&utm_source=a13dN0CY8XDTpMhWiRdWkw", "review_count": 4690, "categories": [{"alias": "pizza", "title": "Pizza"}], "rating": 3.5, "coordinates": {"latitude": 40.702583, "longitude": -73.9932413}, "transactions": ["pickup", "delivery"], "price": "$$", "location": {"address1": "1 Front St", "address2": "", "address3": "", "city": "Brooklyn", "zip_code": "11201", "country": "US", "state": "NY", "display_address": ["1 Front St", "Brooklyn, NY 11201"]}, "phone": "+17188584300", "display_phone": "(718) 858-4300", "distance": 330.34746206527655}, {"id": "v1DHGRNCH9247WLYoaoA9A", "alias": "l-industrie-pizzeria-brooklyn", "name": "L'industrie Pizzeria", "image_url": "https://s3-media2.fl.yelpcdn.com/bphoto/_tHRJGBaVtQD4L-hFK9jjw/o.jpg", "is_closed": false, "url": "https://www.yelp.com/biz/l-industrie-pizzeria-brooklyn?adjust_creative=a13dN0CY8XDTpMhWiRdWkw&utm_campaign=yelp_api_v3&utm_medium=api_v3_business_search&utm_source=a13dN0CY8XDTpMhWiRdWkw", "review_count": 601, "categories": [{"alias": "pizza", "title": "Pizza"}], "rating": 4.5, "coordinates": {"latitude": 40.71162, "longitude": -73.95783}, "transactions": ["delivery"], "price": "$", "location": {"address1": "254 S 2nd St", "address2": "", "address3": "", "city": "Brooklyn", "zip_code": "11211", "country": "US", "state": "NY", "display_address": ["254 S 2nd St", "Brooklyn, NY 11211"]}, "phone": "+17185990002", "display_phone": "(718) 599-0002", "distance": 3145.016041338447}, {"id": "C8j0q4Ma_S5hBGuAI-aaww", "alias": "di-fara-pizza-brooklyn", "name": "Di Fara Pizza", "image_url": "https://s3-media3.fl.yelpcdn.com/bphoto/4dfe9qpe20P-vi3qFjWd4Q/o.jpg", "is_closed": false, "url": "https://www.yelp.com/biz/di-fara-pizza-brooklyn?adjust_creative=a13dN0CY8XDTpMhWiRdWkw&utm_campaign=yelp_api_v3&utm_medium=api_v3_business_search&utm_source=a13dN0CY8XDTpMhWiRdWkw", "review_count": 3658, "categories": [{"alias": "pizza", "title": "Pizza"}], "rating": 4.0, "coordinates": {"latitude": 40.625093, "longitude": -73.961531}, "transactions": ["pickup", "delivery"], "price": "$$", "location": {"address1": "1424 Ave J", "address2": "", "address3": "", "city": "Brooklyn", "zip_code": "11230", "country": "US", "state": "NY", "display_address": ["1424 Ave J", "Brooklyn, NY 11230"]}, "phone": "+17182581367", "display_phone": "(718) 258-1367", "distance": 9352.269072867253}, {"id": "LF1QAuvpfX7KGQlg2zMg6Q", "alias": "johns-of-bleecker-street-new-york-2", "name": "John's of Bleecker Street", "image_url": "https://s3-media2.fl.yelpcdn.com/bphoto/9_3Eim0f4ttMZFxdNp-lVA/o.jpg", "is_closed": false, "url": "https://www.yelp.com/biz/johns-of-bleecker-street-new-york-2?adjust_creative=a13dN0CY8XDTpMhWiRdWkw&utm_campaign=yelp_api_v3&utm_medium=api_v3_business_search&utm_source=a13dN0CY8XDTpMhWiRdWkw", "review_count": 2161, "categories": [{"alias": "pizza", "title": "Pizza"}], "rating": 4.0, "coordinates": {"latitude": 40.73158, "longitude": -74.00332}, "transactions": ["pickup", "delivery"], "price": "$$", "location": {"address1": "278 Bleecker St", "address2": "", "address3": "", "city": "New York", "zip_code": "10014", "country": "US", "state": "NY", "display_address": ["278 Bleecker St", "New York, NY 10014"]}, "phone": "+12122431680", "display_phone": "(212) 243-1680", "distance": 3010.899021476809}, {"id": "hGksyTiHBBdrhbiVjXzWVw", "alias": "scarrs-pizza-new-york", "name": "Scarr's Pizza", "image_url": "https://s3-media3.fl.yelpcdn.com/bphoto/xonxGJK91P_Ow3iY7olsxA/o.jpg", "is_closed": false, "url": "https://www.yelp.com/biz/scarrs-pizza-new-york?adjust_creative=a13dN0CY8XDTpMhWiRdWkw&utm_campaign=yelp_api_v3&utm_medium=api_v3_business_search&utm_source=a13dN0CY8XDTpMhWiRdWkw", "review_count": 502, "categories": [{"alias": "pizza", "title": "Pizza"}], "rating": 4.0, "coordinates": {"latitude": 40.71534, "longitude": -73.9914}, "transactions": ["pickup", "delivery"], "price": "$", "location": {"address1": "22 Orchard St", "address2": "", "address3": "", "city": "New York", "zip_code": "10002", "country": "US", "state": "NY", "display_address": ["22 Orchard St", "New York, NY 10002"]}, "phone": "+12123343481", "display_phone": "(212) 334-3481", "distance": 1125.7843300426755}, {"id": "oJ_XSPZFpvIt6rvheSQl7A", "alias": "bleecker-street-pizza-new-york", "name": "Bleecker Street Pizza", "image_url": "https://s3-media4.fl.yelpcdn.com/bphoto/Kyi2tP43S_a6s-zXD38NUQ/o.jpg", "is_closed": false, "url": "https://www.yelp.com/biz/bleecker-street-pizza-new-york?adjust_creative=a13dN0CY8XDTpMhWiRdWkw&utm_campaign=yelp_api_v3&utm_medium=api_v3_business_search&utm_source=a13dN0CY8XDTpMhWiRdWkw", "review_count": 2469, "categories": [{"alias": "pizza", "title": "Pizza"}, {"alias": "italian", "title": "Italian"}], "rating": 4.0, "coordinates": {"latitude": 40.7320627016512, "longitude": -74.0036552270137}, "transactions": ["pickup", "delivery"], "price": "$", "location": {"address1": "69 7th Ave S", "address2": null, "address3": "", "city": "New York", "zip_code": "10014", "country": "US", "state": "NY", "display_address": ["69 7th Ave S", "New York, NY 10014"]}, "phone": "+12129244466", "display_phone": "(212) 924-4466", "distance": 3073.5742196084057}, {"id": "qoBcWhGwlcUsKIQ2nB22vA", "alias": "lombardos-of-bay-ridge-brooklyn-2", "name": "Lombardo's of Bay Ridge", "image_url": "https://s3-media2.fl.yelpcdn.com/bphoto/dApR-oBFGa2kQIpmEeasfA/o.jpg", "is_closed": false, "url": "https://www.yelp.com/biz/lombardos-of-bay-ridge-brooklyn-2?adjust_creative=a13dN0CY8XDTpMhWiRdWkw&utm_campaign=yelp_api_v3&utm_medium=api_v3_business_search&utm_source=a13dN0CY8XDTpMhWiRdWkw", "review_count": 156, "categories": [{"alias": "pizza", "title": "Pizza"}], "rating": 5.0, "coordinates": {"latitude": 40.634741, "longitude": -74.0284259}, "transactions": ["pickup"], "price": "$$", "location": {"address1": "279 71st St", "address2": null, "address3": "", "city": "Brooklyn", "zip_code": "11209", "country": "US", "state": "NY", "display_address": ["279 71st St", "Brooklyn, NY 11209"]}, "phone": "+17182387100", "display_phone": "(718) 238-7100", "distance": 8367.095256061873}, {"id": "pGr5QuQU7Ur5GHLvXbT8bw", "alias": "paulie-gees-brooklyn", "name": "Paulie Gee's", "image_url": "https://s3-media2.fl.yelpcdn.com/bphoto/1j39J4NABK_RBtO-l90QNg/o.jpg", "is_closed": false, "url": "https://www.yelp.com/biz/paulie-gees-brooklyn?adjust_creative=a13dN0CY8XDTpMhWiRdWkw&utm_campaign=yelp_api_v3&utm_medium=api_v3_business_search&utm_source=a13dN0CY8XDTpMhWiRdWkw", "review_count": 1289, "categories": [{"alias": "pizza", "title": "Pizza"}], "rating": 4.5, "coordinates": {"latitude": 40.729546, "longitude": -73.958568}, "transactions": ["delivery"], "price": "$$", "location": {"address1": "60 Greenpoint Ave", "address2": "", "address3": "", "city": "Brooklyn", "zip_code": "11222", "country": "US", "state": "NY", "display_address": ["60 Greenpoint Ave", "Brooklyn, NY 11222"]}, "phone": "+13479873747", "display_phone": "(347) 987-3747", "distance": 4027.308250680752}, {"id": "GRXvvB1OKMuW4XDWEaVAlg", "alias": "joes-pizza-brooklyn-8", "name": "Joe's Pizza", "image_url": "https://s3-media2.fl.yelpcdn.com/bphoto/7RQebflR3JvTcMWRbVC86g/o.jpg", "is_closed": false, "url": "https://www.yelp.com/biz/joes-pizza-brooklyn-8?adjust_creative=a13dN0CY8XDTpMhWiRdWkw&utm_campaign=yelp_api_v3&utm_medium=api_v3_business_search&utm_source=a13dN0CY8XDTpMhWiRdWkw", "review_count": 365, "categories": [{"alias": "pizza", "title": "Pizza"}], "rating": 4.0, "coordinates": {"latitude": 40.71691, "longitude": -73.958987}, "transactions": ["pickup", "delivery"], "price": "$", "location": {"address1": "216 Bedford Ave", "address2": "", "address3": null, "city": "Brooklyn", "zip_code": "11249", "country": "US", "state": "NY", "display_address": ["216 Bedford Ave", "Brooklyn, NY 11249"]}, "phone": "+17183882216", "display_phone": "(718) 388-2216", "distance": 3239.2966565668607}, {"id": "oOr6Ta5gZyDl6PyZ1cq7pg", "alias": "east-village-pizza-new-york", "name": "East Village Pizza", "image_url": "https://s3-media2.fl.yelpcdn.com/bphoto/JiV117pdeH3hG6J91KfPeA/o.jpg", "is_closed": false, "url": "https://www.yelp.com/biz/east-village-pizza-new-york?adjust_creative=a13dN0CY8XDTpMhWiRdWkw&utm_campaign=yelp_api_v3&utm_medium=api_v3_business_search&utm_source=a13dN0CY8XDTpMhWiRdWkw", "review_count": 384, "categories": [{"alias": "pizza", "title": "Pizza"}, {"alias": "italian", "title": "Italian"}], "rating": 4.0, "coordinates": {"latitude": 40.728199, "longitude": -73.985182}, "transactions": ["pickup", "delivery"], "price": "$", "location": {"address1": "145 1st Ave", "address2": "", "address3": "", "city": "New York", "zip_code": "10003", "country": "US", "state": "NY", "display_address": ["145 1st Ave", "New York, NY 10003"]}, "phone": "+12125294545", "display_phone": "(212) 529-4545", "distance": 2643.8575043591286}, {"id": "TWH4MjLtN1fKlF-7n6YXHg", "alias": "lil-frankies-new-york", "name": "Lil Frankie's", "image_url": "https://s3-media4.fl.yelpcdn.com/bphoto/b0nsA2W4oswnmH3fr-BOig/o.jpg", "is_closed": false, "url": "https://www.yelp.com/biz/lil-frankies-new-york?adjust_creative=a13dN0CY8XDTpMhWiRdWkw&utm_campaign=yelp_api_v3&utm_medium=api_v3_business_search&utm_source=a13dN0CY8XDTpMhWiRdWkw", "review_count": 1232, "categories": [{"alias": "pizza", "title": "Pizza"}, {"alias": "italian", "title": "Italian"}], "rating": 4.0, "coordinates": {"latitude": 40.723625, "longitude": -73.988555}, "transactions": ["pickup", "delivery"], "price": "$$", "location": {"address1": "19 1st Ave", "address2": "", "address3": "", "city": "New York", "zip_code": "10003", "country": "US", "state": "NY", "display_address": ["19 1st Ave", "New York, NY 10003"]}, "phone": "+12124204900", "display_phone": "(212) 420-4900", "distance": 2079.0350425992006}, {"id": "QfCbV1_VIjfCkowro_WGNA", "alias": "luigis-pizza-brooklyn", "name": "Luigi's Pizza", "image_url": "https://s3-media3.fl.yelpcdn.com/bphoto/WsGK3FQqwN79wtbczYR3ZQ/o.jpg", "is_closed": false, "url": "https://www.yelp.com/biz/luigis-pizza-brooklyn?adjust_creative=a13dN0CY8XDTpMhWiRdWkw&utm_campaign=yelp_api_v3&utm_medium=api_v3_business_search&utm_source=a13dN0CY8XDTpMhWiRdWkw", "review_count": 362, "categories": [{"alias": "pizza", "title": "Pizza"}], "rating": 4.5, "coordinates": {"latitude": 40.66163, "longitude": -73.99334}, "transactions": ["pickup", "delivery"], "price": "$", "location": {"address1": "686 5th Ave", "address2": "", "address3": "", "city": "Brooklyn", "zip_code": "11215", "country": "US", "state": "NY", "display_address": ["686 5th Ave", "Brooklyn, NY 11215"]}, "phone": "+17184993857", "display_phone": "(718) 499-3857", "distance": 4871.041578229889}, {"id": "EXQ0x2W9RTydIlHAU9MU1A", "alias": "mimis-pizza-new-york", "name": "Mimi's Pizza", "image_url": "https://s3-media3.fl.yelpcdn.com/bphoto/btcWJW_uNq7JEwk2wFMtiQ/o.jpg", "is_closed": false, "url": "https://www.yelp.com/biz/mimis-pizza-new-york?adjust_creative=a13dN0CY8XDTpMhWiRdWkw&utm_campaign=yelp_api_v3&utm_medium=api_v3_business_search&utm_source=a13dN0CY8XDTpMhWiRdWkw", "review_count": 69, "categories": [{"alias": "pizza", "title": "Pizza"}], "rating": 4.5, "coordinates": {"latitude": 40.778638, "longitude": -73.952895}, "transactions": ["pickup", "delivery"], "location": {"address1": "217 E 86th St", "address2": null, "address3": "", "city": "New York", "zip_code": "10028", "country": "US", "state": "NY", "display_address": ["217 E 86th St", "New York, NY 10028"]}, "phone": "+16468612518", "display_phone": "(646) 861-2518", "distance": 8852.345604022003}, {"id": "IZ9-5z45wc3Oh_jlnX_Kcg", "alias": "giuseppinas-brooklyn", "name": "Giuseppina's", "image_url": "https://s3-media3.fl.yelpcdn.com/bphoto/38q6KTMRVd0NiwlQ7GiBKw/o.jpg", "is_closed": false, "url": "https://www.yelp.com/biz/giuseppinas-brooklyn?adjust_creative=a13dN0CY8XDTpMhWiRdWkw&utm_campaign=yelp_api_v3&utm_medium=api_v3_business_search&utm_source=a13dN0CY8XDTpMhWiRdWkw", "review_count": 327, "categories": [{"alias": "pizza", "title": "Pizza"}], "rating": 4.5, "coordinates": {"latitude": 40.6603430973463, "longitude": -73.9907741546631}, "transactions": ["pickup"], "price": "$$", "location": {"address1": "691 6th Ave", "address2": null, "address3": null, "city": "Brooklyn", "zip_code": "11215", "country": "US", "state": "NY", "display_address": ["691 6th Ave", "Brooklyn, NY 11215"]}, "phone": "+17184995052", "display_phone": "(718) 499-5052", "distance": 5023.85312943866}, {"id": "vyoA8dxwScuMV_AsTcjQcg", "alias": "l-and-b-spumoni-gardens-brooklyn", "name": "L & B Spumoni Gardens", "image_url": "https://s3-media2.fl.yelpcdn.com/bphoto/BrTci9PjIwi7V1vkbgkdqg/o.jpg", "is_closed": false, "url": "https://www.yelp.com/biz/l-and-b-spumoni-gardens-brooklyn?adjust_creative=a13dN0CY8XDTpMhWiRdWkw&utm_campaign=yelp_api_v3&utm_medium=api_v3_business_search&utm_source=a13dN0CY8XDTpMhWiRdWkw", "review_count": 4051, "categories": [{"alias": "pizza", "title": "Pizza"}, {"alias": "italian", "title": "Italian"}], "rating": 4.0, "coordinates": {"latitude": 40.594715, "longitude": -73.981316}, "transactions": ["pickup", "delivery"], "price": "$", "location": {"address1": "2725 86th St", "address2": "", "address3": "", "city": "Brooklyn", "zip_code": "11223", "country": "US", "state": "NY", "display_address": ["2725 86th St", "Brooklyn, NY 11223"]}, "phone": "+17184491230", "display_phone": "(718) 449-1230", "distance": 12361.163422806636}, {"id": "xrgzB0pvsxeGEIboE6I2gg", "alias": "patsys-pizzeria-brooklyn-2", "name": "Patsy's Pizzeria", "image_url": "https://s3-media4.fl.yelpcdn.com/bphoto/1n5xL5ojLR-_zseirQKaMw/o.jpg", "is_closed": false, "url": "https://www.yelp.com/biz/patsys-pizzeria-brooklyn-2?adjust_creative=a13dN0CY8XDTpMhWiRdWkw&utm_campaign=yelp_api_v3&utm_medium=api_v3_business_search&utm_source=a13dN0CY8XDTpMhWiRdWkw", "review_count": 564, "categories": [{"alias": "pizza", "title": "Pizza"}, {"alias": "italian", "title": "Italian"}], "rating": 4.5, "coordinates": {"latitude": 40.6818695, "longitude": -73.976181}, "transactions": ["pickup", "delivery"], "price": "$$", "location": {"address1": "450 Dean St", "address2": "", "address3": "", "city": "Brooklyn", "zip_code": "11217", "country": "US", "state": "NY", "display_address": ["450 Dean St", "Brooklyn, NY 11217"]}, "phone": "+17186222268", "display_phone": "(718) 622-2268", "distance": 3034.9893998767334}, {"id": "o-kfxonPwQOWQNBvfkBkWw", "alias": "nyc-pizza-kitchen-new-york", "name": "NYC Pizza Kitchen", "image_url": "https://s3-media3.fl.yelpcdn.com/bphoto/abnuTWaCehMrA47h9I_Z8A/o.jpg", "is_closed": false, "url": "https://www.yelp.com/biz/nyc-pizza-kitchen-new-york?adjust_creative=a13dN0CY8XDTpMhWiRdWkw&utm_campaign=yelp_api_v3&utm_medium=api_v3_business_search&utm_source=a13dN0CY8XDTpMhWiRdWkw", "review_count": 6, "categories": [{"alias": "pizza", "title": "Pizza"}, {"alias": "salad", "title": "Salad"}, {"alias": "sandwiches", "title": "Sandwiches"}], "rating": 4.5, "coordinates": {"latitude": 40.741947306680636, "longitude": -73.98095156997442}, "transactions": ["pickup", "delivery"], "location": {"address1": "390 3rd Ave", "address2": "", "address3": null, "city": "New York", "zip_code": "10016", "country": "US", "state": "NY", "display_address": ["390 3rd Ave", "New York, NY 10016"]}, "phone": "+12127299497", "display_phone": "(212) 729-9497", "distance": 4211.720687746522}, {"id": "-9NO2IDCJMyNGZMAQ1-VQw", "alias": "ny-pizza-suprema-new-york", "name": "NY Pizza Suprema", "image_url": "https://s3-media4.fl.yelpcdn.com/bphoto/EqbDXneMuQP6pw6GemVdQA/o.jpg", "is_closed": false, "url": "https://www.yelp.com/biz/ny-pizza-suprema-new-york?adjust_creative=a13dN0CY8XDTpMhWiRdWkw&utm_campaign=yelp_api_v3&utm_medium=api_v3_business_search&utm_source=a13dN0CY8XDTpMhWiRdWkw", "review_count": 2112, "categories": [{"alias": "pizza", "title": "Pizza"}], "rating": 4.0, "coordinates": {"latitude": 40.7502059936523, "longitude": -73.9953231811523}, "transactions": ["pickup", "delivery"], "price": "$", "location": {"address1": "413 8th Ave", "address2": "", "address3": "", "city": "New York", "zip_code": "10001", "country": "US", "state": "NY", "display_address": ["413 8th Ave", "New York, NY 10001"]}, "phone": "+12125948939", "display_phone": "(212) 594-8939", "distance": 4977.847939164096}, {"id": "4h4Tuuc56YPO6lWfZ1bdSQ", "alias": "joes-pizza-new-york-152", "name": "Joe's Pizza", "image_url": "https://s3-media2.fl.yelpcdn.com/bphoto/yo5oXK2HmxMnvH_PqeABiA/o.jpg", "is_closed": false, "url": "https://www.yelp.com/biz/joes-pizza-new-york-152?adjust_creative=a13dN0CY8XDTpMhWiRdWkw&utm_campaign=yelp_api_v3&utm_medium=api_v3_business_search&utm_source=a13dN0CY8XDTpMhWiRdWkw", "review_count": 270, "categories": [{"alias": "pizza", "title": "Pizza"}], "rating": 4.0, "coordinates": {"latitude": 40.7101297729083, "longitude": -74.0077206864953}, "transactions": ["pickup", "delivery"], "price": "$", "location": {"address1": "124 Fulton St", "address2": "", "address3": null, "city": "New York", "zip_code": "10038", "country": "US", "state": "NY", "display_address": ["124 Fulton St", "New York, NY 10038"]}, "phone": "+12122670860", "display_phone": "(212) 267-0860", "distance": 1245.9428626945232}, {"id": "vTn3ww550Rnhz9naIxtjww", "alias": "brunetti-pizza-new-york", "name": "Brunetti Pizza", "image_url": "https://s3-media1.fl.yelpcdn.com/bphoto/GFEmMtaYhoxsMcZZf3CjkA/o.jpg", "is_closed": false, "url": "https://www.yelp.com/biz/brunetti-pizza-new-york?adjust_creative=a13dN0CY8XDTpMhWiRdWkw&utm_campaign=yelp_api_v3&utm_medium=api_v3_business_search&utm_source=a13dN0CY8XDTpMhWiRdWkw", "review_count": 312, "categories": [{"alias": "pizza", "title": "Pizza"}, {"alias": "italian", "title": "Italian"}], "rating": 4.5, "coordinates": {"latitude": 40.73829, "longitude": -74.0054}, "transactions": ["pickup", "delivery"], "price": "$$", "location": {"address1": "626 Hudson St", "address2": null, "address3": "", "city": "New York", "zip_code": "10014", "country": "US", "state": "NY", "display_address": ["626 Hudson St", "New York, NY 10014"]}, "phone": "+12122555699", "display_phone": "(212) 255-5699", "distance": 3767.335383357533}, {"id": "H8qcX7MNNnC1bqE0LnIhKg", "alias": "sim\u00f2-pizza-new-york-4", "name": "SIM\u00d2 PIZZA", "image_url": "https://s3-media3.fl.yelpcdn.com/bphoto/qaSQsBdO9e1gz5OH9ROckw/o.jpg", "is_closed": false, "url": "https://www.yelp.com/biz/sim%C3%B2-pizza-new-york-4?adjust_creative=a13dN0CY8XDTpMhWiRdWkw&utm_campaign=yelp_api_v3&utm_medium=api_v3_business_search&utm_source=a13dN0CY8XDTpMhWiRdWkw", "review_count": 189, "categories": [{"alias": "pizza", "title": "Pizza"}], "rating": 4.5, "coordinates": {"latitude": 40.7392597584612, "longitude": -74.0088130692187}, "transactions": ["pickup", "delivery"], "price": "$", "location": {"address1": "90-92 Gansevoort St", "address2": "", "address3": null, "city": "New York", "zip_code": "10014", "country": "US", "state": "NY", "display_address": ["90-92 Gansevoort St", "New York, NY 10014"]}, "phone": "+12124622703", "display_phone": "(212) 462-2703", "distance": 3954.1313238707344}, {"id": "KEEXuHCYhsQJ-zpJhu98bA", "alias": "joes-pizza-new-york-148", "name": "Joe's Pizza", "image_url": "https://s3-media3.fl.yelpcdn.com/bphoto/-ORP9v5yOaKdqvmRXN_zkQ/o.jpg", "is_closed": false, "url": "https://www.yelp.com/biz/joes-pizza-new-york-148?adjust_creative=a13dN0CY8XDTpMhWiRdWkw&utm_campaign=yelp_api_v3&utm_medium=api_v3_business_search&utm_source=a13dN0CY8XDTpMhWiRdWkw", "review_count": 1288, "categories": [{"alias": "pizza", "title": "Pizza"}], "rating": 4.0, "coordinates": {"latitude": 40.7547, "longitude": -73.98696}, "transactions": ["pickup", "delivery"], "price": "$", "location": {"address1": "1435 Broadway", "address2": "", "address3": null, "city": "New York", "zip_code": "10018", "country": "US", "state": "NY", "display_address": ["1435 Broadway", "New York, NY 10018"]}, "phone": "+16465594878", "display_phone": "(646) 559-4878", "distance": 5508.746902433722}, {"id": "rZ9OFoSqy8u4WECfh--ylg", "alias": "marta-new-york-7", "name": "Marta", "image_url": "https://s3-media4.fl.yelpcdn.com/bphoto/wVdnsTQRlks4TUXt0QQiFA/o.jpg", "is_closed": false, "url": "https://www.yelp.com/biz/marta-new-york-7?adjust_creative=a13dN0CY8XDTpMhWiRdWkw&utm_campaign=yelp_api_v3&utm_medium=api_v3_business_search&utm_source=a13dN0CY8XDTpMhWiRdWkw", "review_count": 908, "categories": [{"alias": "pizza", "title": "Pizza"}, {"alias": "italian", "title": "Italian"}], "rating": 4.0, "coordinates": {"latitude": 40.7445882, "longitude": -73.9847936}, "transactions": ["delivery"], "price": "$$$", "location": {"address1": "29 E 29th St", "address2": "", "address3": "", "city": "New York", "zip_code": "10016", "country": "US", "state": "NY", "display_address": ["29 E 29th St", "New York, NY 10016"]}, "phone": "+12126513800", "display_phone": "(212) 651-3800", "distance": 4444.4428187583135}, {"id": "vVVmHacu2YAxKfpIjhfd1g", "alias": "norma-new-york-5", "name": "Norma", "image_url": "https://s3-media3.fl.yelpcdn.com/bphoto/qJKt5l2xSBUKOFRA6UOqVg/o.jpg", "is_closed": false, "url": "https://www.yelp.com/biz/norma-new-york-5?adjust_creative=a13dN0CY8XDTpMhWiRdWkw&utm_campaign=yelp_api_v3&utm_medium=api_v3_business_search&utm_source=a13dN0CY8XDTpMhWiRdWkw", "review_count": 479, "categories": [{"alias": "italian", "title": "Italian"}, {"alias": "pizza", "title": "Pizza"}], "rating": 4.5, "coordinates": {"latitude": 40.743553, "longitude": -73.980026}, "transactions": ["pickup", "delivery"], "price": "$$", "location": {"address1": "438 3rd Ave", "address2": null, "address3": "", "city": "New York", "zip_code": "10016", "country": "US", "state": "NY", "display_address": ["438 3rd Ave", "New York, NY 10016"]}, "phone": "+12128890600", "display_phone": "(212) 889-0600", "distance": 4409.483534452521}, {"id": "G77Q6kU-7qRefColCRTS0w", "alias": "robertas-brooklyn-5", "name": "Roberta's", "image_url": "https://s3-media2.fl.yelpcdn.com/bphoto/LL2pMBF8nGtob11nKudndA/o.jpg", "is_closed": false, "url": "https://www.yelp.com/biz/robertas-brooklyn-5?adjust_creative=a13dN0CY8XDTpMhWiRdWkw&utm_campaign=yelp_api_v3&utm_medium=api_v3_business_search&utm_source=a13dN0CY8XDTpMhWiRdWkw", "review_count": 41, "categories": [{"alias": "pizza", "title": "Pizza"}], "rating": 4.0, "coordinates": {"latitude": 40.71618788546057, "longitude": -73.96651754323669}, "transactions": ["pickup", "delivery"], "location": {"address1": "6 Grand St", "address2": "", "address3": null, "city": "Brooklyn", "zip_code": "11249", "country": "US", "state": "NY", "display_address": ["6 Grand St", "Brooklyn, NY 11249"]}, "phone": "+17182782400", "display_phone": "(718) 278-2400", "distance": 2628.2809301068355}, {"id": "S4uozcDEieoaXxIJ6TsUoQ", "alias": "dellaroccos-brooklyn-3", "name": "Dellarocco's", "image_url": "https://s3-media1.fl.yelpcdn.com/bphoto/RGsip2vQXryVUbOrXfYBkQ/o.jpg", "is_closed": false, "url": "https://www.yelp.com/biz/dellaroccos-brooklyn-3?adjust_creative=a13dN0CY8XDTpMhWiRdWkw&utm_campaign=yelp_api_v3&utm_medium=api_v3_business_search&utm_source=a13dN0CY8XDTpMhWiRdWkw", "review_count": 302, "categories": [{"alias": "pizza", "title": "Pizza"}, {"alias": "italian", "title": "Italian"}, {"alias": "wine_bars", "title": "Wine Bars"}], "rating": 4.0, "coordinates": {"latitude": 40.6950309, "longitude": -73.9961252}, "transactions": ["pickup", "delivery"], "price": "$$", "location": {"address1": "214 Hicks St", "address2": null, "address3": "", "city": "Brooklyn", "zip_code": "11201", "country": "US", "state": "NY", "display_address": ["214 Hicks St", "Brooklyn, NY 11201"]}, "phone": "+17188581010", "display_phone": "(718) 858-1010", "distance": 1170.2700329972115}, {"id": "n_0FM-6aEyjTMDcz5PKEfQ", "alias": "koronet-pizza-new-york-6", "name": "Koronet Pizza", "image_url": "https://s3-media4.fl.yelpcdn.com/bphoto/8njY9y5TpJUDgMyJRrJJ7A/o.jpg", "is_closed": false, "url": "https://www.yelp.com/biz/koronet-pizza-new-york-6?adjust_creative=a13dN0CY8XDTpMhWiRdWkw&utm_campaign=yelp_api_v3&utm_medium=api_v3_business_search&utm_source=a13dN0CY8XDTpMhWiRdWkw", "review_count": 43, "categories": [{"alias": "pizza", "title": "Pizza"}], "rating": 4.5, "coordinates": {"latitude": 40.77408, "longitude": -73.95969}, "transactions": ["pickup", "delivery"], "location": {"address1": "1110 Lexington Ave", "address2": "", "address3": null, "city": "New York", "zip_code": "10075", "country": "US", "state": "NY", "display_address": ["1110 Lexington Ave", "New York, NY 10075"]}, "phone": "+16467670424", "display_phone": "(646) 767-0424", "distance": 8161.807257257894}, {"id": "i_rg-OLXQbpRUN7O3MeCeA", "alias": "piz-zetta-brooklyn-2", "name": "Piz-zetta", "image_url": "https://s3-media2.fl.yelpcdn.com/bphoto/9L4viDwAGx3obgYLnXMA6g/o.jpg", "is_closed": false, "url": "https://www.yelp.com/biz/piz-zetta-brooklyn-2?adjust_creative=a13dN0CY8XDTpMhWiRdWkw&utm_campaign=yelp_api_v3&utm_medium=api_v3_business_search&utm_source=a13dN0CY8XDTpMhWiRdWkw", "review_count": 303, "categories": [{"alias": "italian", "title": "Italian"}, {"alias": "pizza", "title": "Pizza"}], "rating": 4.5, "coordinates": {"latitude": 40.6912834070746, "longitude": -73.9906029201042}, "transactions": ["pickup", "delivery"], "price": "$", "location": {"address1": "90 Livingston St", "address2": "", "address3": "", "city": "Brooklyn", "zip_code": "11201", "country": "US", "state": "NY", "display_address": ["90 Livingston St", "Brooklyn, NY 11201"]}, "phone": "+17184227878", "display_phone": "(718) 422-7878", "distance": 1605.1176697811002}, {"id": "ZTsN8TdMXl8SW_AKd_ablw", "alias": "forno-rosso-brooklyn", "name": "Forno Rosso", "image_url": "https://s3-media2.fl.yelpcdn.com/bphoto/YXxJN5InnwCw6Kd54UrAEQ/o.jpg", "is_closed": false, "url": "https://www.yelp.com/biz/forno-rosso-brooklyn?adjust_creative=a13dN0CY8XDTpMhWiRdWkw&utm_campaign=yelp_api_v3&utm_medium=api_v3_business_search&utm_source=a13dN0CY8XDTpMhWiRdWkw", "review_count": 726, "categories": [{"alias": "italian", "title": "Italian"}, {"alias": "pizza", "title": "Pizza"}, {"alias": "cocktailbars", "title": "Cocktail Bars"}], "rating": 4.0, "coordinates": {"latitude": 40.694467, "longitude": -73.98293}, "transactions": ["pickup", "delivery"], "price": "$$", "location": {"address1": "327 Gold St", "address2": "", "address3": "", "city": "Brooklyn", "zip_code": "11201", "country": "US", "state": "NY", "display_address": ["327 Gold St", "Brooklyn, NY 11201"]}, "phone": "+17184513800", "display_phone": "(718) 451-3800", "distance": 1546.804489135146}, {"id": "WE_dce2JKcv-VoFNaqiJ4w", "alias": "carmines-pizzeria-brooklyn", "name": "Carmine's Pizzeria", "image_url": "https://s3-media4.fl.yelpcdn.com/bphoto/V6LFN2p5zVHu78FvXnVZ7g/o.jpg", "is_closed": false, "url": "https://www.yelp.com/biz/carmines-pizzeria-brooklyn?adjust_creative=a13dN0CY8XDTpMhWiRdWkw&utm_campaign=yelp_api_v3&utm_medium=api_v3_business_search&utm_source=a13dN0CY8XDTpMhWiRdWkw", "review_count": 473, "categories": [{"alias": "pizza", "title": "Pizza"}, {"alias": "italian", "title": "Italian"}, {"alias": "sportsbars", "title": "Sports Bars"}], "rating": 4.0, "coordinates": {"latitude": 40.714987, "longitude": -73.94414}, "transactions": ["pickup", "delivery"], "price": "$$", "location": {"address1": "358 Graham Ave", "address2": "", "address3": "", "city": "Brooklyn", "zip_code": "11211", "country": "US", "state": "NY", "display_address": ["358 Graham Ave", "Brooklyn, NY 11211"]}, "phone": "+17187829659", "display_phone": "(718) 782-9659", "distance": 4355.864983059872}, {"id": "16ZnHpuaaBt92XWeJHCC5A", "alias": "olio-e-pi\u00fa-new-york-city", "name": "Olio e Pi\u00fa", "image_url": "https://s3-media3.fl.yelpcdn.com/bphoto/W_kyLvXj7ustj-XHWYU6tQ/o.jpg", "is_closed": false, "url": "https://www.yelp.com/biz/olio-e-pi%C3%BA-new-york-city?adjust_creative=a13dN0CY8XDTpMhWiRdWkw&utm_campaign=yelp_api_v3&utm_medium=api_v3_business_search&utm_source=a13dN0CY8XDTpMhWiRdWkw", "review_count": 2788, "categories": [{"alias": "pizza", "title": "Pizza"}, {"alias": "italian", "title": "Italian"}, {"alias": "cocktailbars", "title": "Cocktail Bars"}], "rating": 4.5, "coordinates": {"latitude": 40.733798036104304, "longitude": -73.99977392649927}, "transactions": ["pickup", "delivery"], "price": "$$", "location": {"address1": "3 Greenwich Ave", "address2": null, "address3": "", "city": "New York", "zip_code": "10014", "country": "US", "state": "NY", "display_address": ["3 Greenwich Ave", "New York, NY 10014"]}, "phone": "+12122436546", "display_phone": "(212) 243-6546", "distance": 3186.3804982206075}, {"id": "uEKiv6WEPg9dWj10HCur5A", "alias": "table-87-brooklyn-heights-brooklyn-2", "name": "Table 87 - Brooklyn Heights", "image_url": "https://s3-media2.fl.yelpcdn.com/bphoto/9L0BVvPWhbRB8mMYY6NKLQ/o.jpg", "is_closed": false, "url": "https://www.yelp.com/biz/table-87-brooklyn-heights-brooklyn-2?adjust_creative=a13dN0CY8XDTpMhWiRdWkw&utm_campaign=yelp_api_v3&utm_medium=api_v3_business_search&utm_source=a13dN0CY8XDTpMhWiRdWkw", "review_count": 301, "categories": [{"alias": "pizza", "title": "Pizza"}, {"alias": "italian", "title": "Italian"}], "rating": 4.0, "coordinates": {"latitude": 40.691219329834, "longitude": -73.9973449707031}, "transactions": ["pickup", "delivery"], "price": "$$", "location": {"address1": "87 Atlantic Ave", "address2": "", "address3": "", "city": "Brooklyn", "zip_code": "11201", "country": "US", "state": "NY", "display_address": ["87 Atlantic Ave", "Brooklyn, NY 11201"]}, "phone": "+17187979300", "display_phone": "(718) 797-9300", "distance": 1602.5908124268826}, {"id": "kIm0oeOaVfC9-2flLPVklA", "alias": "patrizias-pizza-and-pasta-new-york", "name": "Patrizia's Pizza and Pasta", "image_url": "https://s3-media1.fl.yelpcdn.com/bphoto/HG4eRBBgLSG0RrzLZv1mLA/o.jpg", "is_closed": false, "url": "https://www.yelp.com/biz/patrizias-pizza-and-pasta-new-york?adjust_creative=a13dN0CY8XDTpMhWiRdWkw&utm_campaign=yelp_api_v3&utm_medium=api_v3_business_search&utm_source=a13dN0CY8XDTpMhWiRdWkw", "review_count": 666, "categories": [{"alias": "italian", "title": "Italian"}, {"alias": "pizza", "title": "Pizza"}, {"alias": "catering", "title": "Caterers"}], "rating": 4.0, "coordinates": {"latitude": 40.7398415, "longitude": -73.9792862}, "transactions": ["pickup", "delivery"], "price": "$$", "location": {"address1": "462-466 2nd Ave", "address2": "", "address3": "", "city": "New York", "zip_code": "10016", "country": "US", "state": "NY", "display_address": ["462-466 2nd Ave", "New York, NY 10016"]}, "phone": "+12125979999", "display_phone": "(212) 597-9999", "distance": 4040.895814674829}, {"id": "aTmNnrx0XE_nTSFFzXnt8w", "alias": "roebling-pizza-brooklyn", "name": "Roebling Pizza", "image_url": "https://s3-media4.fl.yelpcdn.com/bphoto/MKB7xNl91tiGK-8icZ2psA/o.jpg", "is_closed": false, "url": "https://www.yelp.com/biz/roebling-pizza-brooklyn?adjust_creative=a13dN0CY8XDTpMhWiRdWkw&utm_campaign=yelp_api_v3&utm_medium=api_v3_business_search&utm_source=a13dN0CY8XDTpMhWiRdWkw", "review_count": 121, "categories": [{"alias": "pizza", "title": "Pizza"}], "rating": 4.5, "coordinates": {"latitude": 40.7084890714263, "longitude": -73.9610940711639}, "transactions": ["pickup", "delivery"], "price": "$", "location": {"address1": "326 Roebling St", "address2": "", "address3": "", "city": "Brooklyn", "zip_code": "11211", "country": "US", "state": "NY", "display_address": ["326 Roebling St", "Brooklyn, NY 11211"]}, "phone": "+17187825042", "display_phone": "(718) 782-5042", "distance": 2818.8131221054136}, {"id": "-CCfu19Uuy_kD2t4ZwsQfA", "alias": "village-square-pizza-new-york-3", "name": "Village Square Pizza", "image_url": "https://s3-media1.fl.yelpcdn.com/bphoto/rc1se5XkYcc6ABo8g7u4Zw/o.jpg", "is_closed": false, "url": "https://www.yelp.com/biz/village-square-pizza-new-york-3?adjust_creative=a13dN0CY8XDTpMhWiRdWkw&utm_campaign=yelp_api_v3&utm_medium=api_v3_business_search&utm_source=a13dN0CY8XDTpMhWiRdWkw", "review_count": 197, "categories": [{"alias": "pizza", "title": "Pizza"}], "rating": 4.5, "coordinates": {"latitude": 40.72748, "longitude": -73.98268}, "transactions": ["pickup", "delivery"], "price": "$", "location": {"address1": "147 Ave A", "address2": null, "address3": "", "city": "New York", "zip_code": "10009", "country": "US", "state": "NY", "display_address": ["147 Ave A", "New York, NY 10009"]}, "phone": "+19176757709", "display_phone": "(917) 675-7709", "distance": 2640.263835248777}, {"id": "vfYhEpp0x-DrNjC6GSJjPQ", "alias": "artichoke-basilles-pizza-new-york-2", "name": "Artichoke Basille's Pizza", "image_url": "https://s3-media3.fl.yelpcdn.com/bphoto/4krjwPml7pLVDnn56sf6AQ/o.jpg", "is_closed": false, "url": "https://www.yelp.com/biz/artichoke-basilles-pizza-new-york-2?adjust_creative=a13dN0CY8XDTpMhWiRdWkw&utm_campaign=yelp_api_v3&utm_medium=api_v3_business_search&utm_source=a13dN0CY8XDTpMhWiRdWkw", "review_count": 4010, "categories": [{"alias": "pizza", "title": "Pizza"}], "rating": 4.0, "coordinates": {"latitude": 40.7321124557704, "longitude": -73.9839056828882}, "transactions": ["pickup", "delivery"], "price": "$", "location": {"address1": "321 E 14th St", "address2": "", "address3": "", "city": "New York", "zip_code": "10003", "country": "US", "state": "NY", "display_address": ["321 E 14th St", "New York, NY 10003"]}, "phone": "+12122282004", "display_phone": "(212) 228-2004", "distance": 3091.822113723405}, {"id": "1ocm2YeYQJ3KveEBDcXAqg", "alias": "nonnas-pizza-new-york-6", "name": "Nonna's Pizza", "image_url": "https://s3-media3.fl.yelpcdn.com/bphoto/piSyq2J3P5ZUxtHofubYUA/o.jpg", "is_closed": false, "url": "https://www.yelp.com/biz/nonnas-pizza-new-york-6?adjust_creative=a13dN0CY8XDTpMhWiRdWkw&utm_campaign=yelp_api_v3&utm_medium=api_v3_business_search&utm_source=a13dN0CY8XDTpMhWiRdWkw", "review_count": 10, "categories": [{"alias": "pizza", "title": "Pizza"}], "rating": 4.5, "coordinates": {"latitude": 40.73891, "longitude": -73.99298}, "transactions": ["delivery"], "location": {"address1": "12 W 18th St", "address2": "", "address3": null, "city": "New York", "zip_code": "10011", "country": "US", "state": "NY", "display_address": ["12 W 18th St", "New York, NY 10011"]}, "phone": "+12122060500", "display_phone": "(212) 206-0500", "distance": 3718.62334949911}, {"id": "xxgcU_oFIox_pAmroo9WwA", "alias": "front-street-pizza-brooklyn", "name": "Front Street Pizza", "image_url": "https://s3-media1.fl.yelpcdn.com/bphoto/ybrfmg0lGdBoJRM7X1_s3A/o.jpg", "is_closed": false, "url": "https://www.yelp.com/biz/front-street-pizza-brooklyn?adjust_creative=a13dN0CY8XDTpMhWiRdWkw&utm_campaign=yelp_api_v3&utm_medium=api_v3_business_search&utm_source=a13dN0CY8XDTpMhWiRdWkw", "review_count": 390, "categories": [{"alias": "pizza", "title": "Pizza"}, {"alias": "bars", "title": "Bars"}, {"alias": "italian", "title": "Italian"}], "rating": 4.0, "coordinates": {"latitude": 40.70244, "longitude": -73.98943}, "transactions": ["pickup", "delivery"], "price": "$", "location": {"address1": "80 Front St", "address2": "", "address3": "", "city": "Brooklyn", "zip_code": "11201", "country": "US", "state": "NY", "display_address": ["80 Front St", "Brooklyn, NY 11201"]}, "phone": "+17188753700", "display_phone": "(718) 875-3700", "distance": 550.4392264831844}, {"id": "6ECcDYsRgmfv0eKXk-c11Q", "alias": "la-nonna-krispy-krust-pizza-brooklyn", "name": "La Nonna Krispy Krust Pizza", "image_url": "https://s3-media3.fl.yelpcdn.com/bphoto/snKP9CUQHOth_2vox3Z79g/o.jpg", "is_closed": false, "url": "https://www.yelp.com/biz/la-nonna-krispy-krust-pizza-brooklyn?adjust_creative=a13dN0CY8XDTpMhWiRdWkw&utm_campaign=yelp_api_v3&utm_medium=api_v3_business_search&utm_source=a13dN0CY8XDTpMhWiRdWkw", "review_count": 58, "categories": [{"alias": "pizza", "title": "Pizza"}], "rating": 4.0, "coordinates": {"latitude": 40.717953, "longitude": -73.9637027}, "transactions": ["pickup", "delivery"], "price": "$$", "location": {"address1": "175 Kent Ave", "address2": null, "address3": "", "city": "Brooklyn", "zip_code": "11211", "country": "US", "state": "NY", "display_address": ["175 Kent Ave", "Brooklyn, NY 11211"]}, "phone": "+13473842100", "display_phone": "(347) 384-2100", "distance": 2929.5564145017947}, {"id": "ZLPYcgEeRllSoeWyr7y4Ig", "alias": "totonnos-brooklyn", "name": "Totonno's", "image_url": "https://s3-media3.fl.yelpcdn.com/bphoto/sRcdY5SLS9RCZqd9BqNccQ/o.jpg", "is_closed": false, "url": "https://www.yelp.com/biz/totonnos-brooklyn?adjust_creative=a13dN0CY8XDTpMhWiRdWkw&utm_campaign=yelp_api_v3&utm_medium=api_v3_business_search&utm_source=a13dN0CY8XDTpMhWiRdWkw", "review_count": 810, "categories": [{"alias": "pizza", "title": "Pizza"}], "rating": 4.0, "coordinates": {"latitude": 40.578913225666966, "longitude": -73.98383392883555}, "transactions": ["pickup"], "price": "$$", "location": {"address1": "1524 Neptune Ave", "address2": "", "address3": "", "city": "Brooklyn", "zip_code": "11224", "country": "US", "state": "NY", "display_address": ["1524 Neptune Ave", "Brooklyn, NY 11224"]}, "phone": "+17183728606", "display_phone": "(718) 372-8606", "distance": 14097.30957825896}, {"id": "MEz44tgJJ6GNg-RN2H84zg", "alias": "bellucci-pizza-astoria", "name": "Bellucci Pizza", "image_url": "https://s3-media2.fl.yelpcdn.com/bphoto/6PV0Fga7W2xABKbW8VfXQQ/o.jpg", "is_closed": false, "url": "https://www.yelp.com/biz/bellucci-pizza-astoria?adjust_creative=a13dN0CY8XDTpMhWiRdWkw&utm_campaign=yelp_api_v3&utm_medium=api_v3_business_search&utm_source=a13dN0CY8XDTpMhWiRdWkw", "review_count": 121, "categories": [{"alias": "pizza", "title": "Pizza"}], "rating": 4.5, "coordinates": {"latitude": 40.76772937223715, "longitude": -73.9234633428848}, "transactions": ["pickup", "delivery"], "location": {"address1": "29-04 30th Ave", "address2": null, "address3": "", "city": "Astoria", "zip_code": "11102", "country": "US", "state": "NY", "display_address": ["29-04 30th Ave", "Astoria, NY 11102"]}, "phone": "+17189711074", "display_phone": "(718) 971-1074", "distance": 9142.164567616306}, {"id": "vpkTNjq9dRh9rT3Nh0pe-A", "alias": "nolita-pizza-new-york-2", "name": "Nolita Pizza", "image_url": "https://s3-media2.fl.yelpcdn.com/bphoto/2h3k8ApjZGZ8aUNPZp8--g/o.jpg", "is_closed": false, "url": "https://www.yelp.com/biz/nolita-pizza-new-york-2?adjust_creative=a13dN0CY8XDTpMhWiRdWkw&utm_campaign=yelp_api_v3&utm_medium=api_v3_business_search&utm_source=a13dN0CY8XDTpMhWiRdWkw", "review_count": 95, "categories": [{"alias": "pizza", "title": "Pizza"}, {"alias": "gluten_free", "title": "Gluten-Free"}, {"alias": "italian", "title": "Italian"}], "rating": 4.5, "coordinates": {"latitude": 40.7208883, "longitude": -73.9962404}, "transactions": ["pickup", "delivery"], "price": "$", "location": {"address1": "68 Kenmare St", "address2": null, "address3": null, "city": "New York", "zip_code": "10012", "country": "US", "state": "NY", "display_address": ["68 Kenmare St", "New York, NY 10012"]}, "phone": "+16468959131", "display_phone": "(646) 895-9131", "distance": 1725.0543086810944}], "total": 240, "region": {"center": {"longitude": -73.99429321289062, "latitude": 40.70544486444615}}}